id,name,city,state,price_per_night,hotel_type,rating,latitude,longitude,budget_category,nearby_area,popularity_score,tags,image_url
H001,Sea Crest Residency - Baga,Goa,Goa,2200,budget,4.2,15.5528,73.754,low,Baga,76,"wifi, ac, breakfast, parking, beach access",https://upload.wikimedia.org/wikipedia/commons/a/a8/Baga_Beach%2C_Calangute%2C_Goa.jpg
H002,Calangute Bay Stay - Calangute,Goa,Goa,3200,standard,4.4,15.5448,73.7564,moderate,Calangute,81,"wifi, ac, breakfast, room service, parking, beach access",https://upload.wikimedia.org/wikipedia/commons/thumb/8/81/Sunset_at_Calangute.jpg/3840px-Sunset_at_Calangute.jpg
H003,Anjuna Palm Retreat - Anjuna,Goa,Goa,4100,boutique,4.5,15.5783,73.7395,moderate,Anjuna,84,"wifi, cafe, room service, parking, local decor, beach access",https://upload.wikimedia.org/wikipedia/commons/thumb/c/cf/Anjuna_Beach%2C_Goa%2C_India%2C_Legendary_Curlies_beach_shack.jpg/3840px-Anjuna_Beach%2C_Goa%2C_India%2C_Legendary_Curlies_beach_shack.jpg
H004,Vagator Cliff Resort - Vagator,Goa,Goa,6200,resort,4.6,15.5994,73.7351,high,Vagator,88,"pool, spa, bar, restaurant, garden, indoor games, beach access",https://upload.wikimedia.org/wikipedia/commons/thumb/f/fc/BeachFun.jpg/3840px-BeachFun.jpg
H005,Old Goa Heritage Inn - Old Goa,Goa,Goa,3500,boutique,4.3,15.5013,73.9114,moderate,Old Goa,74,"wifi, cafe, room service, parking, local decor, beach access",https://upload.wikimedia.org/wikipedia/commons/thumb/f/fc/BeachFun.jpg/3840px-BeachFun.jpg
H006,Aguada Seaview Hotel - Fort Aguada,Goa,Goa,7800,premium,4.7,15.4935,73.7687,high,Fort Aguada,90,"wifi, pool, restaurant, room service, parking, beach access, heritage decor",https://upload.wikimedia.org/wikipedia/commons/a/ad/Fort_aguada.jpg
H007,Palolem Shoreline Huts - Palolem,Goa,Goa,2800,budget,4.3,15.0102,74.0236,low,Palolem,79,"wifi, ac, breakfast, parking, beach access",https://upload.wikimedia.org/wikipedia/commons/9/9c/Palolem_Beach%2C_South_Goa.jpg
H008,Colva Sands Resort - Colva,Goa,Goa,4700,resort,4.4,15.2801,73.9237,moderate,Colva,80,"pool, spa, bar, restaurant, garden, indoor games, beach access",https://upload.wikimedia.org/wikipedia/commons/0/06/Colv%C3%A1_beach.jpg
H009,Panaji Riverfront Suites - Panaji,Goa,Goa,5600,premium,4.5,15.492,73.8286,high,Panaji,83,"wifi, pool, restaurant, room service, parking, beach access",https://upload.wikimedia.org/wikipedia/commons/thumb/d/d9/Panaji_City.JPG/1920px-Panaji_City.JPG
H010,Johari Courtyard Stay - Johari Bazaar,Jaipur,Rajasthan,2400,budget,4.2,26.9234,75.8262,low,Johari Bazaar,77,"wifi, ac, breakfast, parking, heritage decor",https://upload.wikimedia.org/wikipedia/commons/thumb/4/41/East_facade_Hawa_Mahal_Jaipur_from_ground_level_%28July_2022%29_-_img_01.jpg/1920px-East_facade_Hawa_Mahal_Jaipur_from_ground_level_%28July_2022%29_-_img_01.jpg
H011,Pink City Heritage House - City Palace,Jaipur,Rajasthan,3600,boutique,4.4,26.9251,75.8242,moderate,City Palace,84,"wifi, cafe, room service, parking, local decor, heritage decor",https://upload.wikimedia.org/wikipedia/commons/a/a4/Chandra_Mahal%2C_City_Palace%2C_Jaipur%2C_20191218_0951_9043.jpg
H012,Hawa Mahal View Inn - Hawa Mahal,Jaipur,Rajasthan,4200,standard,4.4,26.9242,75.8269,moderate,Hawa Mahal,82,"wifi, ac, breakfast, room service, parking, heritage decor",https://upload.wikimedia.org/wikipedia/commons/4/41/East_facade_Hawa_Mahal_Jaipur_from_ground_level_%28July_2022%29_-_img_01.jpg
H013,Amber Fort Residency - Amber Fort Road,Jaipur,Rajasthan,5100,standard,4.5,26.9849,75.8506,moderate,Amber Fort Road,80,"wifi, ac, breakfast, room service, parking, heritage decor",https://upload.wikimedia.org/wikipedia/commons/f/fb/20191219_Fort_Amber%2C_Amer%2C_Jaipur_0955_9481.jpg
H014,Nahargarh Ridge Retreat - Nahargarh Foothills,Jaipur,Rajasthan,6800,resort,4.6,26.9372,75.8159,high,Nahargarh Foothills,86,"pool, spa, bar, restaurant, garden, indoor games, heritage decor",https://upload.wikimedia.org/wikipedia/commons/thumb/4/49/Suvela_machi%2CRajgad_fort%2C_Maharashtra%2CIndia_July2015.jpg/3840px-Suvela_machi%2CRajgad_fort%2C_Maharashtra%2CIndia_July2015.jpg
H015,Royal Haveli Jaipur - Old City,Jaipur,Rajasthan,8200,premium,4.7,26.9261,75.8235,high,Old City,91,"wifi, pool, restaurant, room service, parking, heritage decor",https://upload.wikimedia.org/wikipedia/commons/thumb/4/41/East_facade_Hawa_Mahal_Jaipur_from_ground_level_%28July_2022%29_-_img_01.jpg/1920px-East_facade_Hawa_Mahal_Jaipur_from_ground_level_%28July_2022%29_-_img_01.jpg
H016,Albert Hall Garden Hotel - Ram Niwas Garden,Jaipur,Rajasthan,3300,standard,4.3,26.9126,75.8201,moderate,Ram Niwas Garden,75,"wifi, ac, breakfast, room service, parking, heritage decor",https://upload.wikimedia.org/wikipedia/commons/thumb/4/41/East_facade_Hawa_Mahal_Jaipur_from_ground_level_%28July_2022%29_-_img_01.jpg/1920px-East_facade_Hawa_Mahal_Jaipur_from_ground_level_%28July_2022%29_-_img_01.jpg
H017,Patrika Urban Stay - Jawahar Circle,Jaipur,Rajasthan,2900,budget,4.1,26.8513,75.8052,low,Jawahar Circle,70,"wifi, ac, breakfast, parking, heritage decor",https://upload.wikimedia.org/wikipedia/commons/thumb/4/45/Patrika_Gate_Jawahar_Circle_Jaipur_2022-07.jpg/3840px-Patrika_Gate_Jawahar_Circle_Jaipur_2022-07.jpg
H018,Jaigarh Palace Resort - Jaigarh Hills,Jaipur,Rajasthan,9500,luxury,4.8,26.9854,75.8497,premium,Jaigarh Hills,89,"spa, pool, bar, restaurant, gym, room service, heritage decor",https://upload.wikimedia.org/wikipedia/commons/3/34/Rajasthan-Jaipur-Jaigarh-Fort-compound-Apr-2004-00.JPG
H019,Lake Pichola View Stay - Lake Pichola,Udaipur,Rajasthan,3400,standard,4.4,24.5759,73.6813,moderate,Lake Pichola,84,"wifi, ac, breakfast, room service, parking, lake views",https://upload.wikimedia.org/wikipedia/commons/d/d2/Udaipur_Lake_India.JPG
H020,Old City Haveli Udaipur - Gangaur Ghat,Udaipur,Rajasthan,3900,boutique,4.5,24.579,73.6833,moderate,Gangaur Ghat,86,"wifi, cafe, room service, parking, local decor, lake views, river views",https://upload.wikimedia.org/wikipedia/commons/thumb/6/6f/Evening_view%2C_City_Palace%2C_Udaipur.jpg/1920px-Evening_view%2C_City_Palace%2C_Udaipur.jpg
H021,City Palace Residency - City Palace Area,Udaipur,Rajasthan,5200,standard,4.5,24.5769,73.6838,moderate,City Palace Area,83,"wifi, ac, breakfast, room service, parking, lake views, heritage decor",https://upload.wikimedia.org/wikipedia/commons/thumb/6/69/Udaipur_City_Palace.jpg/1920px-Udaipur_City_Palace.jpg
H022,Fateh Sagar Lakefront Hotel - Fateh Sagar,Udaipur,Rajasthan,6100,premium,4.6,24.6018,73.678,high,Fateh Sagar,87,"wifi, pool, restaurant, room service, parking, lake views",https://upload.wikimedia.org/wikipedia/commons/5/50/Fatehsagar_nehrugarden.jpg
H023,Monsoon Palace Hills Resort - Sajjangarh Road,Udaipur,Rajasthan,7800,resort,4.6,24.5929,73.6676,high,Sajjangarh Road,85,"pool, spa, bar, restaurant, garden, indoor games, lake views",https://upload.wikimedia.org/wikipedia/commons/thumb/4/4c/Udaipur_City_Railway_Station_2024_2.jpg/3840px-Udaipur_City_Railway_Station_2024_2.jpg
H024,Saheli Garden Suites - Saheliyon Ki Bari,Udaipur,Rajasthan,4300,boutique,4.4,24.601,73.6866,moderate,Saheliyon Ki Bari,78,"wifi, cafe, room service, parking, local decor, lake views",https://upload.wikimedia.org/wikipedia/commons/8/84/Saheliyon-ki-Bari_Fountain.JPG
H025,Shilpgram Retreat - Shilpgram,Udaipur,Rajasthan,3000,budget,4.2,24.6223,73.6843,low,Shilpgram,71,"wifi, ac, breakfast, parking, lake views",https://upload.wikimedia.org/wikipedia/commons/3/36/Shilpgram_SWM_1.JPG
H026,Royal Lake Palace View - Lake Pichola,Udaipur,Rajasthan,9800,luxury,4.8,24.576,73.6805,premium,Lake Pichola,92,"spa, pool, bar, restaurant, gym, room service, lake views",https://upload.wikimedia.org/wikipedia/commons/d/d2/Udaipur_Lake_India.JPG
H027,Karni Mata Heights - Doodh Talai,Udaipur,Rajasthan,4700,standard,4.3,24.5717,73.6909,moderate,Doodh Talai,74,"wifi, ac, breakfast, room service, parking, lake views",https://upload.wikimedia.org/wikipedia/commons/thumb/7/70/DoodhTalai.jpg/1920px-DoodhTalai.jpg
H028,Chandni Chowk Heritage Stay - Chandni Chowk,Delhi,Delhi,2600,budget,4.1,28.6509,77.2306,low,Chandni Chowk,76,"wifi, ac, breakfast, parking, city access",https://upload.wikimedia.org/wikipedia/commons/thumb/4/40/Jama_Masjid_2011.jpg/1920px-Jama_Masjid_2011.jpg
H029,Red Fort Residency - Red Fort Area,Delhi,Delhi,4100,standard,4.3,28.656,77.2407,moderate,Red Fort Area,79,"wifi, ac, breakfast, room service, parking, city access, heritage decor",https://upload.wikimedia.org/wikipedia/commons/2/2a/Delhi_fort.jpg
H030,Connaught Place Central Hotel - Connaught Place,Delhi,Delhi,5900,premium,4.5,28.6317,77.2165,high,Connaught Place,88,"wifi, pool, restaurant, room service, parking, city access",https://upload.wikimedia.org/wikipedia/commons/4/49/Skyline_at_Rajiv_Chowk.JPG
H031,Lutyens Garden Suites - India Gate,Delhi,Delhi,7200,boutique,4.6,28.6128,77.2291,high,India Gate,85,"wifi, cafe, room service, parking, local decor, city access",https://upload.wikimedia.org/wikipedia/commons/0/09/India_Gate_in_New_Delhi_03-2016.jpg
H032,South Delhi Comfort Inn - Kalkaji,Delhi,Delhi,3400,standard,4.2,28.5539,77.2592,moderate,Kalkaji,73,"wifi, ac, breakfast, room service, parking, city access",https://upload.wikimedia.org/wikipedia/commons/thumb/e/e2/Kalkaji-shrine.jpg/1920px-Kalkaji-shrine.jpg
H033,Qutub Heritage Hotel - Mehrauli,Delhi,Delhi,4600,boutique,4.4,28.5247,77.1859,moderate,Mehrauli,80,"wifi, cafe, room service, parking, local decor, city access",https://upload.wikimedia.org/wikipedia/commons/f/f4/Qutub_Minar_%281%29.jpg
H034,Akshardham Family Stay - Akshardham,Delhi,Delhi,3800,standard,4.3,28.6128,77.2776,moderate,Akshardham,77,"wifi, ac, breakfast, room service, parking, city access",https://upload.wikimedia.org/wikipedia/commons/e/e9/Swaminarayan_Akshardham%2C_Delhi.jpg
H035,Lodhi Garden Boutique House - Lodhi Road,Delhi,Delhi,6400,boutique,4.5,28.5932,77.22,high,Lodhi Road,82,"wifi, cafe, room service, parking, local decor, city access",https://upload.wikimedia.org/wikipedia/commons/thumb/f/f5/Lodhi_Road_Delhi.jpg/3840px-Lodhi_Road_Delhi.jpg
H036,Imperial Capital Grand - Central Delhi,Delhi,Delhi,11000,luxury,4.8,28.6298,77.2199,premium,Central Delhi,91,"spa, pool, bar, restaurant, gym, room service, city access",https://upload.wikimedia.org/wikipedia/commons/thumb/0/0b/Delhi_districts.png/960px-Delhi_districts.png
H037,Triveni Riverside Lodge - Triveni Ghat,Rishikesh,Uttarakhand,2100,budget,4.2,30.1087,78.2951,low,Triveni Ghat,79,"wifi, ac, breakfast, parking, river views",https://upload.wikimedia.org/wikipedia/commons/0/08/Triveni_Ghat_Krishna_Arjun_Rath.jpg
H038,Ram Jhula Retreat - Ram Jhula,Rishikesh,Uttarakhand,3200,standard,4.4,30.1214,78.3212,moderate,Ram Jhula,84,"wifi, ac, breakfast, room service, parking, river views",https://upload.wikimedia.org/wikipedia/commons/thumb/1/11/Ramjhula_-_bridge_over_the_Ganga.jpg/500px-Ramjhula_-_bridge_over_the_Ganga.jpg
H039,Lakshman Jhula View Stay - Lakshman Jhula,Rishikesh,Uttarakhand,3600,boutique,4.4,30.1323,78.3306,moderate,Lakshman Jhula,83,"wifi, cafe, room service, parking, local decor, river views",https://upload.wikimedia.org/wikipedia/commons/7/75/Rishikesh-Lakshman_Jhula_by_Kaustubh_Nayyar.jpg
H040,Parmarth Wellness Ashram Stay - Swarg Ashram,Rishikesh,Uttarakhand,2900,standard,4.5,30.1273,78.3299,low,Swarg Ashram,81,"wifi, ac, breakfast, room service, parking, river views",https://upload.wikimedia.org/wikipedia/commons/thumb/7/74/Trayambakeshwar_Temple_VK.jpg/3840px-Trayambakeshwar_Temple_VK.jpg
H041,Ganga Cliff Resort - Neer Garh Road,Rishikesh,Uttarakhand,5400,resort,4.6,30.1439,78.3328,high,Neer Garh Road,86,"pool, spa, bar, restaurant, garden, indoor games, river views",https://upload.wikimedia.org/wikipedia/commons/thumb/7/74/Trayambakeshwar_Temple_VK.jpg/3840px-Trayambakeshwar_Temple_VK.jpg
H042,Beatles Forest Retreat - Tapovan,Rishikesh,Uttarakhand,4300,boutique,4.3,30.1173,78.3259,moderate,Tapovan,75,"wifi, cafe, room service, parking, local decor, river views",https://upload.wikimedia.org/wikipedia/commons/thumb/7/74/Trayambakeshwar_Temple_VK.jpg/3840px-Trayambakeshwar_Temple_VK.jpg
H043,Shivpuri Rapids Camp - Shivpuri,Rishikesh,Uttarakhand,3900,resort,4.5,30.1208,78.3999,moderate,Shivpuri,88,"pool, spa, bar, restaurant, garden, indoor games, river views",https://upload.wikimedia.org/wikipedia/commons/thumb/7/74/Trayambakeshwar_Temple_VK.jpg/3840px-Trayambakeshwar_Temple_VK.jpg
H044,Kunjapuri Sunrise Lodge - Kunjapuri Road,Rishikesh,Uttarakhand,4700,standard,4.4,30.1242,78.3639,moderate,Kunjapuri Road,74,"wifi, ac, breakfast, room service, parking, river views",https://upload.wikimedia.org/wikipedia/commons/thumb/6/66/New_tehri.jpg/1920px-New_tehri.jpg
H045,Himalayan Serene Resort - Tapovan Heights,Rishikesh,Uttarakhand,8200,luxury,4.7,30.1301,78.3318,premium,Tapovan Heights,89,"spa, pool, bar, restaurant, gym, room service, river views",https://upload.wikimedia.org/wikipedia/commons/thumb/7/74/Trayambakeshwar_Temple_VK.jpg/3840px-Trayambakeshwar_Temple_VK.jpg
H046,Cedar Grove Stay - Mall Road,Manali,Himachal Pradesh,2300,budget,4.2,32.2394,77.1885,low,Mall Road,76,"wifi, ac, breakfast, parking, mountain views",https://upload.wikimedia.org/wikipedia/commons/0/03/Manali_City.jpg
H047,Old Manali Pine Lodge - Old Manali,Manali,Himachal Pradesh,3200,boutique,4.4,32.2441,77.1889,moderate,Old Manali,82,"wifi, cafe, room service, parking, local decor, mountain views",https://upload.wikimedia.org/wikipedia/commons/0/03/Manali_City.jpg
H048,Hadimba Forest Retreat - Hadimba Road,Manali,Himachal Pradesh,4100,standard,4.4,32.2433,77.1898,moderate,Hadimba Road,80,"wifi, ac, breakfast, room service, parking, mountain views",https://upload.wikimedia.org/wikipedia/commons/0/03/Manali_City.jpg
H049,Solang Valley Camp and Stay - Solang Valley,Manali,Himachal Pradesh,5200,resort,4.5,32.3174,77.1562,moderate,Solang Valley,86,"pool, spa, bar, restaurant, garden, indoor games, mountain views",https://upload.wikimedia.org/wikipedia/commons/thumb/f/f1/Solang_Valley_%2CManali%2C_Himachal_Pardes%2C_India.JPG/3840px-Solang_Valley_%2CManali%2C_Himachal_Pardes%2C_India.JPG
H050,Vashisht Wellness Inn - Vashisht,Manali,Himachal Pradesh,3600,standard,4.3,32.2528,77.1876,moderate,Vashisht,74,"wifi, ac, breakfast, room service, parking, mountain views",https://upload.wikimedia.org/wikipedia/commons/0/03/Manali_City.jpg
H051,Rohtang View Resort - Nehru Kund Road,Manali,Himachal Pradesh,6900,resort,4.6,32.268,77.1814,high,Nehru Kund Road,85,"pool, spa, bar, restaurant, garden, indoor games, mountain views",https://upload.wikimedia.org/wikipedia/commons/c/c0/Beas_River_at_Kullu%2C_Himachal_Pradesh.jpg
H052,Manu Temple Boutique House - Old Manali Heights,Manali,Himachal Pradesh,4500,boutique,4.5,32.2462,77.1884,moderate,Old Manali Heights,78,"wifi, cafe, room service, parking, local decor, mountain views",https://upload.wikimedia.org/wikipedia/commons/thumb/a/a7/Ultramarine_Flycatcher_Pangot_Uttarakhand_India_04.10.2014.jpg/500px-Ultramarine_Flycatcher_Pangot_Uttarakhand_India_04.10.2014.jpg
H053,Himalayan Crown Manali - Central Manali,Manali,Himachal Pradesh,7900,premium,4.7,32.2401,77.189,high,Central Manali,88,"wifi, pool, restaurant, room service, parking, mountain views",https://upload.wikimedia.org/wikipedia/commons/f/f0/Kullu_Manali_Airport_in_Bhunter_04.jpg
H054,Peakline Grand Resort - Log Huts Area,Manali,Himachal Pradesh,9800,luxury,4.8,32.241,77.19,premium,Log Huts Area,90,"spa, pool, bar, restaurant, gym, room service, mountain views",https://upload.wikimedia.org/wikipedia/commons/thumb/2/2f/TWC_Haast_heli%E2%80%A2_Stewart_Nimmo_%E2%80%A2_MRD_9079.jpg/3840px-TWC_Haast_heli%E2%80%A2_Stewart_Nimmo_%E2%80%A2_MRD_9079.jpg
H055,Colaba Harbour Stay - Colaba,Mumbai,Maharashtra,3400,budget,4.2,18.9222,72.835,low,Colaba,79,"wifi, ac, breakfast, parking, city access",https://upload.wikimedia.org/wikipedia/commons/thumb/2/27/%E0%A6%93%E0%A6%B0%E0%A6%B2%E0%A6%BF%E0%A6%B0_%E0%A6%97%E0%A6%97%E0%A6%A8%E0%A6%B0%E0%A7%88%E0%A6%96%E0%A6%BF%E0%A6%95_%E0%A6%A6%E0%A7%83%E0%A6%B6%E0%A7%8D%E0%A6%AF.jpg/3840px-%E0%A6%93%E0%A6%B0%E0%A6%B2%E0%A6%BF%E0%A6%B0_%E0%A6%97%E0%A6%97%E0%A6%A8%E0%A6%B0%E0%A7%88%E0%A6%96%E0%A6%BF%E0%A6%95_%E0%A6%A6%E0%A7%83%E0%A6%B6%E0%A7%8D%E0%A6%AF.jpg
H056,Marine Drive Residency - Marine Drive,Mumbai,Maharashtra,5200,standard,4.4,18.9432,72.8242,moderate,Marine Drive,86,"wifi, ac, breakfast, room service, parking, city access",https://upload.wikimedia.org/wikipedia/commons/7/74/Mumbai_03-2016_27_skyline_at_Marine_Drive.jpg
H057,Gateway Boutique Suites - Gateway of India,Mumbai,Maharashtra,6700,boutique,4.5,18.9224,72.8349,high,Gateway of India,88,"wifi, cafe, room service, parking, local decor, city access",https://upload.wikimedia.org/wikipedia/commons/3/3a/Mumbai_03-2016_30_Gateway_of_India.jpg
H058,Juhu Beach Resort - Juhu,Mumbai,Maharashtra,6100,resort,4.4,19.0993,72.8269,high,Juhu,84,"pool, spa, bar, restaurant, garden, indoor games, city access",https://upload.wikimedia.org/wikipedia/commons/thumb/b/bf/Juhu_beach_%28Arial%29.jpg/1280px-Juhu_beach_%28Arial%29.jpg
H059,Bandra Bay Hotel - Bandra,Mumbai,Maharashtra,4800,standard,4.3,19.0418,72.8173,moderate,Bandra,78,"wifi, ac, breakfast, room service, parking, city access",https://upload.wikimedia.org/wikipedia/commons/thumb/a/aa/Bandra_Worli_Sea_Link_at_night.jpg/1920px-Bandra_Worli_Sea_Link_at_night.jpg
H060,Connex Business Hotel Mumbai - CST District,Mumbai,Maharashtra,3900,standard,4.2,18.9405,72.8359,moderate,CST District,74,"wifi, ac, breakfast, room service, parking, city access",https://upload.wikimedia.org/wikipedia/commons/4/4d/Chhatrapati_shivaji_terminus%2C_esterno_01.jpg
H061,Siddhivinayak Family Stay - Prabhadevi,Mumbai,Maharashtra,3600,budget,4.1,19.0179,72.8303,low,Prabhadevi,71,"wifi, ac, breakfast, parking, city access",https://upload.wikimedia.org/wikipedia/commons/thumb/2/27/%E0%A6%93%E0%A6%B0%E0%A6%B2%E0%A6%BF%E0%A6%B0_%E0%A6%97%E0%A6%97%E0%A6%A8%E0%A6%B0%E0%A7%88%E0%A6%96%E0%A6%BF%E0%A6%95_%E0%A6%A6%E0%A7%83%E0%A6%B6%E0%A7%8D%E0%A6%AF.jpg/3840px-%E0%A6%93%E0%A6%B0%E0%A6%B2%E0%A6%BF%E0%A6%B0_%E0%A6%97%E0%A6%97%E0%A6%A8%E0%A6%B0%E0%A7%88%E0%A6%96%E0%A6%BF%E0%A6%95_%E0%A6%A6%E0%A7%83%E0%A6%B6%E0%A7%8D%E0%A6%AF.jpg
H062,The Queen's Necklace Grand - Marine Drive,Mumbai,Maharashtra,9400,premium,4.7,18.9434,72.8244,high,Marine Drive,91,"wifi, pool, restaurant, room service, parking, city access",https://upload.wikimedia.org/wikipedia/commons/7/74/Mumbai_03-2016_27_skyline_at_Marine_Drive.jpg
H063,Imperial Arabian Sea Palace - Colaba Waterfront,Mumbai,Maharashtra,12000,luxury,4.8,18.923,72.8352,premium,Colaba Waterfront,93,"spa, pool, bar, restaurant, gym, room service, city access",https://upload.wikimedia.org/wikipedia/commons/3/3a/Mumbai_03-2016_30_Gateway_of_India.jpg
H064,Ghat View Guest House - Dashashwamedh Ghat,Varanasi,Uttar Pradesh,1900,budget,4.1,25.3068,83.0111,low,Dashashwamedh Ghat,78,"wifi, ac, breakfast, parking, ghat access, river views",https://upload.wikimedia.org/wikipedia/commons/a/ad/Dasaswamedh_ghat-varanasi_india-andres_larin.jpg
H065,Kashi Temple Stay - Kashi Vishwanath Corridor,Varanasi,Uttar Pradesh,2800,standard,4.3,25.3113,83.011,low,Kashi Vishwanath Corridor,82,"wifi, ac, breakfast, room service, parking, ghat access",https://upload.wikimedia.org/wikipedia/commons/f/ff/Kashi_Vishwanath.jpg
H066,Assi Riverside Retreat - Assi Ghat,Varanasi,Uttar Pradesh,4200,boutique,4.5,25.2873,83.0057,moderate,Assi Ghat,85,"wifi, cafe, room service, parking, local decor, ghat access, river views",https://upload.wikimedia.org/wikipedia/commons/c/c2/Assi_Ghat_Varanasi_morning_Aarti.jpg
H067,Sarnath Heritage Hotel - Sarnath,Varanasi,Uttar Pradesh,3900,standard,4.3,25.3815,83.0221,moderate,Sarnath,74,"wifi, ac, breakfast, room service, parking, ghat access",https://upload.wikimedia.org/wikipedia/commons/thumb/d/d9/Ancient_Buddhist_monasteries_near_Dhamekh_Stupa_Monument_Site%2C_Sarnath.jpg/1280px-Ancient_Buddhist_monasteries_near_Dhamekh_Stupa_Monument_Site%2C_Sarnath.jpg
H068,Banaras Courtyard Haveli - Old City,Varanasi,Uttar Pradesh,4700,boutique,4.4,25.307,83.01,moderate,Old City,80,"wifi, cafe, room service, parking, local decor, ghat access",https://upload.wikimedia.org/wikipedia/commons/thumb/0/0e/Varanasi%2C_India%2C_Ghats%2C_Cremation_ceremony_in_progress.jpg/1920px-Varanasi%2C_India%2C_Ghats%2C_Cremation_ceremony_in_progress.jpg
H069,Ganga Aarti Residency - Ghat Belt,Varanasi,Uttar Pradesh,5300,premium,4.5,25.3065,83.0112,high,Ghat Belt,87,"wifi, pool, restaurant, room service, parking, ghat access, river views",https://upload.wikimedia.org/wikipedia/commons/thumb/6/6e/1167_main-ghat-at-bithoor.jpg/960px-1167_main-ghat-at-bithoor.jpg
H070,BHU Garden Inn - BHU Area,Varanasi,Uttar Pradesh,3500,standard,4.2,25.2681,82.9917,moderate,BHU Area,71,"wifi, ac, breakfast, room service, parking, ghat access",https://upload.wikimedia.org/wikipedia/en/thumb/3/36/IIT-BHU_Logo.svg/330px-IIT-BHU_Logo.svg.png
H071,Ramnagar Fort View Resort - Ramnagar,Varanasi,Uttar Pradesh,6200,resort,4.4,25.2711,83.0234,high,Ramnagar,76,"pool, spa, bar, restaurant, garden, indoor games, ghat access",https://upload.wikimedia.org/wikipedia/commons/8/89/Entrance_area_of_Ramnagar_Fort.jpg
H072,Royal Banaras Palace Hotel - Central Ghat Zone,Varanasi,Uttar Pradesh,8900,luxury,4.7,25.308,83.0105,premium,Central Ghat Zone,90,"spa, pool, bar, restaurant, gym, room service, ghat access, river views",https://upload.wikimedia.org/wikipedia/commons/thumb/0/0e/Varanasi%2C_India%2C_Ghats%2C_Cremation_ceremony_in_progress.jpg/1920px-Varanasi%2C_India%2C_Ghats%2C_Cremation_ceremony_in_progress.jpg
H073,Fort Kochi Seaside Stay - Fort Kochi,Kochi,Kerala,2600,budget,4.2,9.9668,76.2386,low,Fort Kochi,77,"wifi, ac, breakfast, parking, waterfront access, heritage decor",https://upload.wikimedia.org/wikipedia/commons/6/6e/Kochi%2C_Fishing_nets_at_sunset%2C_Kerala%2C_India.jpg
H074,Chinese Nets View Hotel - Fort Kochi Waterfront,Kochi,Kerala,3400,standard,4.3,9.9665,76.2406,moderate,Fort Kochi Waterfront,81,"wifi, ac, breakfast, room service, parking, waterfront access, heritage decor",https://upload.wikimedia.org/wikipedia/commons/6/6e/Kochi%2C_Fishing_nets_at_sunset%2C_Kerala%2C_India.jpg
H075,Jew Town Heritage House - Jew Town,Kochi,Kerala,4100,boutique,4.4,9.9573,76.2593,moderate,Jew Town,79,"wifi, cafe, room service, parking, local decor, waterfront access",https://upload.wikimedia.org/wikipedia/commons/thumb/5/51/Karl-08a.jpg/500px-Karl-08a.jpg
H076,Mattancherry Palace Inn - Mattancherry,Kochi,Kerala,3600,standard,4.2,9.9586,76.2598,moderate,Mattancherry,73,"wifi, ac, breakfast, room service, parking, waterfront access",https://upload.wikimedia.org/wikipedia/commons/f/fb/Jew_Street_Mattancherry%2C_Fort_Kochi%2C_Ernakulam%2C_Kerala%2C_India_IMG_20190526_150112.jpg
H077,Marine Drive Business Hotel - Marine Drive,Kochi,Kerala,4800,standard,4.4,9.982,76.2754,moderate,Marine Drive,84,"wifi, ac, breakfast, room service, parking, waterfront access",https://upload.wikimedia.org/wikipedia/commons/thumb/1/1d/Musical-walkway.jpg/1280px-Musical-walkway.jpg
H078,Cherai Beach Resort - Cherai,Kochi,Kerala,5900,resort,4.5,10.1432,76.1785,high,Cherai,82,"pool, spa, bar, restaurant, garden, indoor games, waterfront access, beach access",https://upload.wikimedia.org/wikipedia/commons/thumb/1/13/Sunrise_at_Cherai_Beach.jpg/3840px-Sunrise_at_Cherai_Beach.jpg
H079,Folklore Boutique Stay - Thevara,Kochi,Kerala,4500,boutique,4.4,9.932,76.2985,moderate,Thevara,75,"wifi, cafe, room service, parking, local decor, waterfront access",https://upload.wikimedia.org/wikipedia/commons/thumb/8/8f/Kochi_Skyline.jpg/960px-Kochi_Skyline.jpg
H080,Backwater Crown Kochi - MG Road Waterfront,Kochi,Kerala,7200,premium,4.6,9.981,76.276,high,MG Road Waterfront,87,"wifi, pool, restaurant, room service, parking, waterfront access",https://upload.wikimedia.org/wikipedia/commons/thumb/8/8f/Kochi_Skyline.jpg/960px-Kochi_Skyline.jpg
H081,Malabar Grand Palace - Fort Kochi Premium Zone,Kochi,Kerala,9800,luxury,4.8,9.9672,76.241,premium,Fort Kochi Premium Zone,89,"spa, pool, bar, restaurant, gym, room service, waterfront access, heritage decor",https://upload.wikimedia.org/wikipedia/commons/6/6e/Kochi%2C_Fishing_nets_at_sunset%2C_Kerala%2C_India.jpg
H082,Taj View Budget Inn - Taj Ganj,Agra,Uttar Pradesh,2100,budget,4.1,27.1755,78.0424,low,Taj Ganj,77,"wifi, ac, breakfast, parking, monument access",https://upload.wikimedia.org/wikipedia/commons/1/1d/Taj_Mahal_%28Edited%29.jpeg
H083,Agra Fort Residency - Agra Fort Area,Agra,Uttar Pradesh,3300,standard,4.3,27.1799,78.0215,moderate,Agra Fort Area,80,"wifi, ac, breakfast, room service, parking, monument access, heritage decor",https://upload.wikimedia.org/wikipedia/commons/7/7e/Agra_03-2016_10_Agra_Fort.jpg
H084,Mehtab Garden Stay - Mehtab Bagh Side,Agra,Uttar Pradesh,3900,boutique,4.4,27.1801,78.042,moderate,Mehtab Bagh Side,76,"wifi, cafe, room service, parking, local decor, monument access",https://upload.wikimedia.org/wikipedia/commons/8/8d/Mehtab_Bagh_facing_Taj_Mahal.JPG
H085,Fatehpur Circuit Hotel - Fatehpur Sikri Road,Agra,Uttar Pradesh,4600,standard,4.2,27.0949,77.6682,moderate,Fatehpur Sikri Road,71,"wifi, ac, breakfast, room service, parking, monument access",https://upload.wikimedia.org/wikipedia/commons/b/b5/Fatehput_Sikiri_Buland_Darwaza_gate_2010.jpg
H086,Kinari Bazaar Guest House - Kinari Bazaar,Agra,Uttar Pradesh,2500,budget,4,27.1841,78.015,low,Kinari Bazaar,68,"wifi, ac, breakfast, parking, monument access",https://upload.wikimedia.org/wikipedia/commons/thumb/2/24/Red_and_Blue.jpg/1920px-Red_and_Blue.jpg
H087,Sikandra Heritage Retreat - Sikandra,Agra,Uttar Pradesh,4100,boutique,4.3,27.221,77.9512,moderate,Sikandra,72,"wifi, cafe, room service, parking, local decor, monument access",https://upload.wikimedia.org/wikipedia/commons/thumb/6/60/Akbar%27s_Tomb_in_Sikandra_15.jpg/3840px-Akbar%27s_Tomb_in_Sikandra_15.jpg
H088,Taj Sunrise Premium Hotel - Taj East Gate,Agra,Uttar Pradesh,6100,premium,4.6,27.1757,78.0426,high,Taj East Gate,88,"wifi, pool, restaurant, room service, parking, monument access",https://upload.wikimedia.org/wikipedia/commons/thumb/e/e5/Fatehbad_Road_Metro_4.jpg/3840px-Fatehbad_Road_Metro_4.jpg
H089,Mughal Garden Resort - Taj Nature Walk Zone,Agra,Uttar Pradesh,5400,resort,4.5,27.1699,78.0484,high,Taj Nature Walk Zone,79,"pool, spa, bar, restaurant, garden, indoor games, monument access",https://upload.wikimedia.org/wikipedia/commons/1/1d/Taj_Mahal_%28Edited%29.jpeg
H090,Imperial Marble Palace - Taj Heritage Corridor,Agra,Uttar Pradesh,8900,luxury,4.7,27.176,78.0428,premium,Taj Heritage Corridor,91,"spa, pool, bar, restaurant, gym, room service, monument access, heritage decor",https://upload.wikimedia.org/wikipedia/commons/6/68/Taj_Mahal%2C_Agra%2C_India.jpg
H091,Jodhpur Central Stay - Mehrangarh Fort,Jodhpur,Rajasthan,2400,budget,4.1,26.2494,73.0348,low,Mehrangarh Fort,72,"wifi, ac, breakfast, parking, heritage decor",https://upload.wikimedia.org/wikipedia/commons/9/99/Mehrangarh_Fort_sanhita.jpg
H092,Jodhpur Heritage Inn - Jaswant Thada,Jodhpur,Rajasthan,4100,standard,4.3,26.2544,73.0298,moderate,Jaswant Thada,78,"wifi, ac, breakfast, room service, parking",https://upload.wikimedia.org/wikipedia/commons/thumb/a/ad/Jaswant_Thada_Dawn.jpg/1280px-Jaswant_Thada_Dawn.jpg
H093,Jodhpur Grand Hotel - Umaid Bhawan Palace,Jodhpur,Rajasthan,6600,premium,4.5,26.2314,73.0368,high,Umaid Bhawan Palace,84,"wifi, pool, restaurant, room service, parking, heritage decor",https://upload.wikimedia.org/wikipedia/commons/9/9a/1996_-218-20A_Jodhpur_Hotel_Umaid_Bhawan_Palace_%282233393509%29.jpg
H094,Pushkar Central Stay - Brahma Temple,Pushkar,Rajasthan,2400,budget,4.1,26.5003,74.5616,low,Brahma Temple,72,"wifi, ac, breakfast, parking",https://upload.wikimedia.org/wikipedia/commons/thumb/3/39/Brahma_Temple%2C_Pushkar.jpg/330px-Brahma_Temple%2C_Pushkar.jpg
H095,Pushkar Heritage Inn - Pushkar Lake,Pushkar,Rajasthan,4100,standard,4.3,26.5053,74.5566,moderate,Pushkar Lake,78,"wifi, ac, breakfast, room service, parking, lake views",https://upload.wikimedia.org/wikipedia/commons/thumb/b/b7/%28A%29_Camel_Pushkar_fair.jpg/960px-%28A%29_Camel_Pushkar_fair.jpg
H096,Pushkar Grand Hotel - Savitri Temple,Pushkar,Rajasthan,6600,premium,4.5,26.4823,74.5636,high,Savitri Temple,84,"wifi, pool, restaurant, room service, parking",https://upload.wikimedia.org/wikipedia/commons/thumb/3/39/Brahma_Temple%2C_Pushkar.jpg/330px-Brahma_Temple%2C_Pushkar.jpg
H097,Amritsar Central Stay - Golden Temple,Amritsar,Punjab,2400,budget,4.1,31.6445,74.8828,low,Golden Temple,72,"wifi, ac, breakfast, parking, city access",https://upload.wikimedia.org/wikipedia/commons/9/94/The_Golden_Temple_of_Amrithsar_7.jpg
H098,Amritsar Heritage Inn - Jallianwala Bagh,Amritsar,Punjab,4100,standard,4.3,31.6495,74.8778,moderate,Jallianwala Bagh,78,"wifi, ac, breakfast, room service, parking, city access",https://upload.wikimedia.org/wikipedia/commons/thumb/b/b5/Jallianwala_Bagh%2C_Amritsar_01.jpg/3840px-Jallianwala_Bagh%2C_Amritsar_01.jpg
H099,Amritsar Grand Hotel - Partition Museum,Amritsar,Punjab,6600,premium,4.5,31.6265,74.8848,high,Partition Museum,84,"wifi, pool, restaurant, room service, parking, city access",https://upload.wikimedia.org/wikipedia/en/thumb/b/b3/Partition_museum_logo.jpg/330px-Partition_museum_logo.jpg
H100,Mysuru Central Stay - Mysore Palace,Mysuru,Karnataka,2400,budget,4.1,12.3063,76.6499,low,Mysore Palace,72,"wifi, ac, breakfast, parking, heritage decor",https://upload.wikimedia.org/wikipedia/commons/thumb/a/a4/Mysore_Palace_Morning.jpg/3840px-Mysore_Palace_Morning.jpg
H101,Mysuru Heritage Inn - Chamundi Hills,Mysuru,Karnataka,4100,standard,4.3,12.3113,76.6449,moderate,Chamundi Hills,78,"wifi, ac, breakfast, room service, parking, heritage decor",https://upload.wikimedia.org/wikipedia/commons/thumb/5/59/J.C.Nagar_Welcome_Board_to_Chamundi_Hills.jpg/1920px-J.C.Nagar_Welcome_Board_to_Chamundi_Hills.jpg
H102,Mysuru Grand Hotel - St. Philomena Cathedral,Mysuru,Karnataka,6600,premium,4.5,12.2883,76.6519,high,St. Philomena Cathedral,84,"wifi, pool, restaurant, room service, parking, heritage decor",https://upload.wikimedia.org/wikipedia/commons/thumb/d/d4/India_-_St._Philomena%27s_Church_02.jpg/1920px-India_-_St._Philomena%27s_Church_02.jpg
H103,Shimla Central Stay - Mall Road Shimla,Shimla,Himachal Pradesh,2400,budget,4.1,31.1153,77.1839,low,Mall Road Shimla,72,"wifi, ac, breakfast, parking, hill views, mountain views",https://upload.wikimedia.org/wikipedia/commons/thumb/b/ba/Landscape_of_Shimla_%2C_Himachal_Pradesh.jpg/3840px-Landscape_of_Shimla_%2C_Himachal_Pradesh.jpg
H104,Shimla Heritage Inn - The Ridge,Shimla,Himachal Pradesh,4100,standard,4.3,31.1203,77.1789,moderate,The Ridge,78,"wifi, ac, breakfast, room service, parking, hill views",https://upload.wikimedia.org/wikipedia/commons/thumb/2/25/The_Ridge_Shimla_5.jpg/1920px-The_Ridge_Shimla_5.jpg
H105,Shimla Grand Hotel - Jakhoo Temple,Shimla,Himachal Pradesh,6600,premium,4.5,31.0973,77.1859,high,Jakhoo Temple,84,"wifi, pool, restaurant, room service, parking, hill views",https://upload.wikimedia.org/wikipedia/commons/thumb/b/ba/Landscape_of_Shimla_%2C_Himachal_Pradesh.jpg/3840px-Landscape_of_Shimla_%2C_Himachal_Pradesh.jpg
H106,Darjeeling Central Stay - Tiger Hill,Darjeeling,West Bengal,2400,budget,4.1,27.0515,88.2768,low,Tiger Hill,72,"wifi, ac, breakfast, parking, tea valley views",https://upload.wikimedia.org/wikipedia/commons/thumb/d/d8/Tiger_Hill_Darjeeling_West_Bengal_India_%283%29.JPG/1920px-Tiger_Hill_Darjeeling_West_Bengal_India_%283%29.JPG
H107,Darjeeling Heritage Inn - Batasia Loop,Darjeeling,West Bengal,4100,standard,4.3,27.0565,88.2718,moderate,Batasia Loop,78,"wifi, ac, breakfast, room service, parking, tea valley views",https://upload.wikimedia.org/wikipedia/commons/1/11/Batasia_Loop_War_Memorial_with_Kanchanjunga.jpg
H108,Darjeeling Grand Hotel - Peace Pagoda,Darjeeling,West Bengal,6600,premium,4.5,27.0335,88.2788,high,Peace Pagoda,84,"wifi, pool, restaurant, room service, parking, tea valley views",https://upload.wikimedia.org/wikipedia/commons/thumb/b/b8/Peace_Pagoda%2C_Darjeeling_-_Dec_2006-2.jpg/500px-Peace_Pagoda%2C_Darjeeling_-_Dec_2006-2.jpg
H109,Puducherry Central Stay - Promenade Beach,Puducherry,Puducherry,2400,budget,4.1,11.9521,79.8188,low,Promenade Beach,72,"wifi, ac, breakfast, parking, beach access",https://upload.wikimedia.org/wikipedia/commons/thumb/8/8c/Pondicherry-Rock_beach_aerial_view.jpg/3840px-Pondicherry-Rock_beach_aerial_view.jpg
H110,Puducherry Heritage Inn - Sri Aurobindo Ashram,Puducherry,Puducherry,4100,standard,4.3,11.9571,79.8138,moderate,Sri Aurobindo Ashram,78,"wifi, ac, breakfast, room service, parking",https://upload.wikimedia.org/wikipedia/commons/thumb/f/f3/The-Mothers-Symbol.png/120px-The-Mothers-Symbol.png
H111,Puducherry Grand Hotel - French Quarter,Puducherry,Puducherry,6600,premium,4.5,11.9341,79.8208,high,French Quarter,84,"wifi, pool, restaurant, room service, parking",https://upload.wikimedia.org/wikipedia/commons/thumb/8/8c/Pondicherry-Rock_beach_aerial_view.jpg/3840px-Pondicherry-Rock_beach_aerial_view.jpg
H112,Hampi Central Stay - Virupaksha Temple,Hampi,Karnataka,2400,budget,4.1,15.3455,76.4705,low,Virupaksha Temple,72,"wifi, ac, breakfast, parking",https://upload.wikimedia.org/wikipedia/commons/thumb/b/b9/Complex_of_Virupaksha_Temple%2C_Hampi_%2804%29.jpg/3840px-Complex_of_Virupaksha_Temple%2C_Hampi_%2804%29.jpg
H113,Hampi Heritage Inn - Vittala Temple,Hampi,Karnataka,4100,standard,4.3,15.3505,76.4655,moderate,Vittala Temple,78,"wifi, ac, breakfast, room service, parking",https://upload.wikimedia.org/wikipedia/commons/thumb/d/dd/Wide_angle_of_Galigopuram_of_Virupaksha_Temple%2C_Hampi_%2804%29_%28cropped%29.jpg/3840px-Wide_angle_of_Galigopuram_of_Virupaksha_Temple%2C_Hampi_%2804%29_%28cropped%29.jpg
H114,Hampi Grand Hotel - Hemakuta Hill,Hampi,Karnataka,6600,premium,4.5,15.3275,76.4725,high,Hemakuta Hill,84,"wifi, pool, restaurant, room service, parking",https://upload.wikimedia.org/wikipedia/commons/thumb/d/dd/Wide_angle_of_Galigopuram_of_Virupaksha_Temple%2C_Hampi_%2804%29_%28cropped%29.jpg/3840px-Wide_angle_of_Galigopuram_of_Virupaksha_Temple%2C_Hampi_%2804%29_%28cropped%29.jpg
H115,Srinagar Central Stay - Dal Lake,Srinagar,Jammu and Kashmir,2400,budget,4.1,34.0942,74.8078,low,Dal Lake,72,"wifi, ac, breakfast, parking, lake views",https://upload.wikimedia.org/wikipedia/commons/thumb/e/e1/Dal_Lake_Hazratbal_Srinagar.jpg/3840px-Dal_Lake_Hazratbal_Srinagar.jpg
H116,Srinagar Heritage Inn - Shalimar Bagh,Srinagar,Jammu and Kashmir,4100,standard,4.3,34.0992,74.8028,moderate,Shalimar Bagh,78,"wifi, ac, breakfast, room service, parking, lake views",https://upload.wikimedia.org/wikipedia/commons/d/d6/Shalimar_Bagh_1.jpg
H117,Srinagar Grand Hotel - Nishat Bagh,Srinagar,Jammu and Kashmir,6600,premium,4.5,34.0762,74.8098,high,Nishat Bagh,84,"wifi, pool, restaurant, room service, parking, lake views",https://upload.wikimedia.org/wikipedia/commons/9/94/Nishat_Bagh.JPG
H118,Jaisalmer Central Stay - Jaisalmer Fort,Jaisalmer,Rajasthan,2400,budget,4.1,26.9262,70.9188,low,Jaisalmer Fort,72,"wifi, ac, breakfast, parking, heritage decor",https://upload.wikimedia.org/wikipedia/commons/4/47/Jaisalmer_forteresse.jpg
H119,Jaisalmer Heritage Inn - Patwon Ki Haveli,Jaisalmer,Rajasthan,4100,standard,4.3,26.9312,70.9138,moderate,Patwon Ki Haveli,78,"wifi, ac, breakfast, room service, parking",https://upload.wikimedia.org/wikipedia/commons/e/e6/Patwon_ki_haveli_18.jpg
H120,Jaisalmer Grand Hotel - Gadisar Lake,Jaisalmer,Rajasthan,6600,premium,4.5,26.9082,70.9208,high,Gadisar Lake,84,"wifi, pool, restaurant, room service, parking, lake views",https://upload.wikimedia.org/wikipedia/commons/thumb/8/81/Main_entrance_of_Gadisar_Lake.jpg/1920px-Main_entrance_of_Gadisar_Lake.jpg
H121,Leh Central Stay - Shanti Stupa,Leh,Ladakh,2400,budget,4.1,34.1631,77.5875,low,Shanti Stupa,72,"wifi, ac, breakfast, parking, mountain views",https://upload.wikimedia.org/wikipedia/commons/thumb/8/81/Leh%2C_Shanti_Stupa%2C_Ladakh%2C_India.jpg/1920px-Leh%2C_Shanti_Stupa%2C_Ladakh%2C_India.jpg
H122,Leh Heritage Inn - Leh Palace,Leh,Ladakh,4100,standard,4.3,34.1681,77.5825,moderate,Leh Palace,78,"wifi, ac, breakfast, room service, parking, mountain views, heritage decor",https://upload.wikimedia.org/wikipedia/commons/thumb/3/36/Leh_Palace_2011.jpg/3840px-Leh_Palace_2011.jpg
H123,Leh Grand Hotel - Magnetic Hill,Leh,Ladakh,6600,premium,4.5,34.1451,77.5895,high,Magnetic Hill,84,"wifi, pool, restaurant, room service, parking, mountain views",https://upload.wikimedia.org/wikipedia/commons/thumb/4/45/Magnetic_Hill%2C_Leh.jpg/3840px-Magnetic_Hill%2C_Leh.jpg
H124,Chennai Central Stay - Marina Beach,Chennai,Tamil Nadu,2400,budget,4.1,13.0932,80.2812,low,Marina Beach,72,"wifi, ac, breakfast, parking, beach access",https://upload.wikimedia.org/wikipedia/commons/thumb/d/d9/Chennai_-_bird%27s-eye_view.jpg/3840px-Chennai_-_bird%27s-eye_view.jpg
H125,Chennai Heritage Inn - Kapaleeshwarar Temple,Chennai,Tamil Nadu,4100,standard,4.3,13.0982,80.2762,moderate,Kapaleeshwarar Temple,78,"wifi, ac, breakfast, room service, parking",https://upload.wikimedia.org/wikipedia/commons/thumb/9/99/Kapaleeswarar1.jpg/500px-Kapaleeswarar1.jpg
H126,Chennai Grand Hotel - Fort St. George,Chennai,Tamil Nadu,6600,premium,4.5,13.0752,80.2832,high,Fort St. George,84,"wifi, pool, restaurant, room service, parking, heritage decor",https://upload.wikimedia.org/wikipedia/commons/b/b0/Fort_St._George%2C_Chennai_2.jpg
H127,Bengaluru Central Stay - Lalbagh Botanical Garden,Bengaluru,Karnataka,2400,budget,4.1,12.9821,77.6051,low,Lalbagh Botanical Garden,72,"wifi, ac, breakfast, parking",https://upload.wikimedia.org/wikipedia/commons/thumb/d/d5/Glasshouse_and_fountain_at_lalbagh.jpg/1280px-Glasshouse_and_fountain_at_lalbagh.jpg
H128,Bengaluru Heritage Inn - Bangalore Palace,Bengaluru,Karnataka,4100,standard,4.3,12.9871,77.6001,moderate,Bangalore Palace,78,"wifi, ac, breakfast, room service, parking, heritage decor",https://upload.wikimedia.org/wikipedia/commons/thumb/8/8f/Bangalore_Mysore_Maharaja_Palace.jpg/1280px-Bangalore_Mysore_Maharaja_Palace.jpg
H129,Bengaluru Grand Hotel - Cubbon Park,Bengaluru,Karnataka,6600,premium,4.5,12.9641,77.6071,high,Cubbon Park,84,"wifi, pool, restaurant, room service, parking",https://upload.wikimedia.org/wikipedia/commons/d/d5/Cubbon_Park_W.jpg
H130,Alappuzha Central Stay - Alappuzha Beach,Alappuzha,Kerala,2400,budget,4.1,9.5086,76.3493,low,Alappuzha Beach,72,"wifi, ac, breakfast, parking, beach access",https://upload.wikimedia.org/wikipedia/commons/thumb/1/1f/Alleppey_beach.jpg/3840px-Alleppey_beach.jpg
H131,Alappuzha Heritage Inn - Alleppey Backwaters,Alappuzha,Kerala,4100,standard,4.3,9.5136,76.3443,moderate,Alleppey Backwaters,78,"wifi, ac, breakfast, room service, parking",https://upload.wikimedia.org/wikipedia/commons/e/e4/Alappuzha_Boat_Beauty_W.jpg
H132,Alappuzha Grand Hotel - Alappuzha Lighthouse,Alappuzha,Kerala,6600,premium,4.5,9.4906,76.3513,high,Alappuzha Lighthouse,84,"wifi, pool, restaurant, room service, parking",https://upload.wikimedia.org/wikipedia/commons/e/e4/Alappuzha_Boat_Beauty_W.jpg
H133,Ahmedabad Central Stay - Sabarmati Ashram,Ahmedabad,Gujarat,2400,budget,4.1,23.033,72.5819,low,Sabarmati Ashram,72,"wifi, ac, breakfast, parking",https://upload.wikimedia.org/wikipedia/commons/thumb/9/9a/GANDHI_ASHRAM_03.jpg/3840px-GANDHI_ASHRAM_03.jpg
H134,Ahmedabad Heritage Inn - Adalaj Stepwell,Ahmedabad,Gujarat,4100,standard,4.3,23.038,72.5769,moderate,Adalaj Stepwell,78,"wifi, ac, breakfast, room service, parking, lake views",https://upload.wikimedia.org/wikipedia/commons/thumb/e/e8/Adalaj_ki_Vav_Gujarat_240A1370_72.jpg/1280px-Adalaj_ki_Vav_Gujarat_240A1370_72.jpg
H135,Ahmedabad Grand Hotel - Kankaria Lake,Ahmedabad,Gujarat,6600,premium,4.5,23.015,72.5839,high,Kankaria Lake,84,"wifi, pool, restaurant, room service, parking, lake views",https://upload.wikimedia.org/wikipedia/commons/2/2a/Kankaria_Carnival_2_Ahmedabad.JPG
H136,Dwarka Central Stay - Dwarkadhish Temple,Dwarka,Gujarat,2400,budget,4.1,22.2547,68.979,low,Dwarkadhish Temple,72,"wifi, ac, breakfast, parking",https://upload.wikimedia.org/wikipedia/commons/thumb/0/0c/Dwarakadheesh_Temple%2C_2014.jpg/960px-Dwarakadheesh_Temple%2C_2014.jpg
H137,Dwarka Heritage Inn - Gomti Ghat,Dwarka,Gujarat,4100,standard,4.3,22.2597,68.974,moderate,Gomti Ghat,78,"wifi, ac, breakfast, room service, parking, river views",https://upload.wikimedia.org/wikipedia/commons/thumb/0/0c/Dwarakadheesh_Temple%2C_2014.jpg/960px-Dwarakadheesh_Temple%2C_2014.jpg
H138,Dwarka Grand Hotel - Rukmini Temple,Dwarka,Gujarat,6600,premium,4.5,22.2367,68.981,high,Rukmini Temple,84,"wifi, pool, restaurant, room service, parking",https://upload.wikimedia.org/wikipedia/commons/b/b6/Rukmini_temple.JPG
H139,Somnath Central Stay - Somnath Temple,Somnath,Gujarat,2400,budget,4.1,20.8985,70.4117,low,Somnath Temple,72,"wifi, ac, breakfast, parking",https://upload.wikimedia.org/wikipedia/commons/1/10/Somanath_mandir_%28cropped%29.jpg
H140,Somnath Heritage Inn - Triveni Sangam,Somnath,Gujarat,4100,standard,4.3,20.9035,70.4067,moderate,Triveni Sangam,78,"wifi, ac, breakfast, room service, parking",https://upload.wikimedia.org/wikipedia/commons/0/09/NorthIndiaCircuit_250.jpg
H141,Somnath Grand Hotel - Bhalka Tirth,Somnath,Gujarat,6600,premium,4.5,20.8805,70.4137,high,Bhalka Tirth,84,"wifi, pool, restaurant, room service, parking",https://upload.wikimedia.org/wikipedia/commons/7/72/BHALKA-06.jpg
H142,Madurai Central Stay - Meenakshi Amman Temple,Madurai,Tamil Nadu,2400,budget,4.1,9.9357,78.1303,low,Meenakshi Amman Temple,72,"wifi, ac, breakfast, parking",https://upload.wikimedia.org/wikipedia/commons/e/e9/An_aerial_view_of_Madurai_city_from_atop_of_Meenakshi_Amman_temple.jpg
H143,Madurai Heritage Inn - Thirumalai Nayakkar Palace,Madurai,Tamil Nadu,4100,standard,4.3,9.9407,78.1253,moderate,Thirumalai Nayakkar Palace,78,"wifi, ac, breakfast, room service, parking, heritage decor",https://upload.wikimedia.org/wikipedia/commons/thumb/8/87/Madurai_Nayak_Palace_Collage.jpg/330px-Madurai_Nayak_Palace_Collage.jpg
H144,Madurai Grand Hotel - Gandhi Memorial Museum,Madurai,Tamil Nadu,6600,premium,4.5,9.9177,78.1323,high,Gandhi Memorial Museum,84,"wifi, pool, restaurant, room service, parking",https://upload.wikimedia.org/wikipedia/commons/thumb/e/e1/Gandhi_Memorial_Museum.jpg/1280px-Gandhi_Memorial_Museum.jpg
H145,Ooty Central Stay - Ooty Lake,Ooty,Tamil Nadu,2400,budget,4.1,11.4169,76.7037,low,Ooty Lake,72,"wifi, ac, breakfast, parking, lake views",https://upload.wikimedia.org/wikipedia/commons/c/c8/Ooty_Lake_in_Tamil_Nadu_04.jpg
H146,Ooty Heritage Inn - Botanical Garden Ooty,Ooty,Tamil Nadu,4100,standard,4.3,11.4219,76.6987,moderate,Botanical Garden Ooty,78,"wifi, ac, breakfast, room service, parking",https://upload.wikimedia.org/wikipedia/commons/c/c1/Botanical_Gardens_-_Ootacamund_%28Ooty%29_-_India_03.JPG
H147,Ooty Grand Hotel - Doddabetta Peak,Ooty,Tamil Nadu,6600,premium,4.5,11.3989,76.7057,high,Doddabetta Peak,84,"wifi, pool, restaurant, room service, parking",https://upload.wikimedia.org/wikipedia/commons/e/e6/Doddabettateles.jpg
H148,Kodaikanal Central Stay - Kodaikanal Lake,Kodaikanal,Tamil Nadu,2400,budget,4.1,10.2486,77.4997,low,Kodaikanal Lake,72,"wifi, ac, breakfast, parking, lake views",https://upload.wikimedia.org/wikipedia/commons/d/da/Boating_in_Kodaikanal_Lake_with_Mist.jpg
H149,Kodaikanal Heritage Inn - Coakers Walk,Kodaikanal,Tamil Nadu,4100,standard,4.3,10.2536,77.4947,moderate,Coakers Walk,78,"wifi, ac, breakfast, room service, parking",https://upload.wikimedia.org/wikipedia/commons/d/da/Boating_in_Kodaikanal_Lake_with_Mist.jpg
H150,Kodaikanal Grand Hotel - Bryant Park,Kodaikanal,Tamil Nadu,6600,premium,4.5,10.2306,77.5017,high,Bryant Park,84,"wifi, pool, restaurant, room service, parking",https://upload.wikimedia.org/wikipedia/commons/c/c4/Kodaikanal_lake.jpg
H151,Hyderabad Central Stay - Charminar,Hyderabad,Telangana,2400,budget,4.1,17.3955,78.4972,low,Charminar,72,"wifi, ac, breakfast, parking",https://upload.wikimedia.org/wikipedia/commons/7/71/Charminar_Hyderabad_1.jpg
H152,Hyderabad Heritage Inn - Golconda Fort,Hyderabad,Telangana,4100,standard,4.3,17.4005,78.4922,moderate,Golconda Fort,78,"wifi, ac, breakfast, room service, parking, heritage decor",https://upload.wikimedia.org/wikipedia/commons/thumb/5/56/Golconda_Fort_005.jpg/3840px-Golconda_Fort_005.jpg
H153,Hyderabad Grand Hotel - Hussain Sagar,Hyderabad,Telangana,6600,premium,4.5,17.3775,78.4992,high,Hussain Sagar,84,"wifi, pool, restaurant, room service, parking",https://upload.wikimedia.org/wikipedia/commons/thumb/d/de/HussainSagar_Moon_Rise.jpg/3840px-HussainSagar_Moon_Rise.jpg
H154,Aurangabad Central Stay - Ajanta Caves,Aurangabad,Maharashtra,2400,budget,4.1,19.8867,75.3538,low,Ajanta Caves,72,"wifi, ac, breakfast, parking",https://upload.wikimedia.org/wikipedia/commons/8/87/Kailasha_temple_at_ellora.JPG
H155,Aurangabad Heritage Inn - Ellora Caves,Aurangabad,Maharashtra,4100,standard,4.3,19.8917,75.3488,moderate,Ellora Caves,78,"wifi, ac, breakfast, room service, parking",https://upload.wikimedia.org/wikipedia/commons/8/87/Kailasha_temple_at_ellora.JPG
H156,Aurangabad Grand Hotel - Bibi Ka Maqbara,Aurangabad,Maharashtra,6600,premium,4.5,19.8687,75.3558,high,Bibi Ka Maqbara,84,"wifi, pool, restaurant, room service, parking",https://upload.wikimedia.org/wikipedia/commons/7/78/The_Tomb_of_Dilras_Banu_Begum.jpg
H157,Nashik Central Stay - Trimbakeshwar Temple,Nashik,Maharashtra,2400,budget,4.1,20.008,73.8003,low,Trimbakeshwar Temple,72,"wifi, ac, breakfast, parking",https://upload.wikimedia.org/wikipedia/commons/thumb/1/12/Trimbakeshwar_Temple-Nashik-Maharashtra-1.jpg/3840px-Trimbakeshwar_Temple-Nashik-Maharashtra-1.jpg
H158,Nashik Heritage Inn - Sula Vineyards,Nashik,Maharashtra,4100,standard,4.3,20.013,73.7953,moderate,Sula Vineyards,78,"wifi, ac, breakfast, room service, parking",https://upload.wikimedia.org/wikipedia/commons/thumb/3/35/Sula-Logo.jpg/1920px-Sula-Logo.jpg
H159,Nashik Grand Hotel - Panchavati,Nashik,Maharashtra,6600,premium,4.5,19.99,73.8023,high,Panchavati,84,"wifi, pool, restaurant, room service, parking",https://upload.wikimedia.org/wikipedia/commons/thumb/6/6a/NashikViewfromPandavLeni.jpg/960px-NashikViewfromPandavLeni.jpg
H160,Bhopal Central Stay - Upper Lake,Bhopal,Madhya Pradesh,2400,budget,4.1,23.2704,77.4231,low,Upper Lake,72,"wifi, ac, breakfast, parking, lake views",https://upload.wikimedia.org/wikipedia/commons/c/ca/Upper_Lake%2C_Bhopal%2C_M.P.jpg
H161,Bhopal Heritage Inn - Van Vihar,Bhopal,Madhya Pradesh,4100,standard,4.3,23.2754,77.4181,moderate,Van Vihar,78,"wifi, ac, breakfast, room service, parking",https://upload.wikimedia.org/wikipedia/commons/a/aa/Alligator_at_Van_Vihar_National_Park.jpg
H162,Bhopal Grand Hotel - Taj-ul-Masajid,Bhopal,Madhya Pradesh,6600,premium,4.5,23.2524,77.4251,high,Taj-ul-Masajid,84,"wifi, pool, restaurant, room service, parking",https://upload.wikimedia.org/wikipedia/commons/2/24/Taj-ul-Masjid%2C_Bhopal%2C_India.jpg
H163,Khajuraho Central Stay - Western Group of Temples,Khajuraho,Madhya Pradesh,2400,budget,4.1,24.8423,79.9304,low,Western Group of Temples,72,"wifi, ac, breakfast, parking",https://upload.wikimedia.org/wikipedia/commons/e/e7/1_Khajuraho.jpg
H164,Khajuraho Heritage Inn - Eastern Group of Temples,Khajuraho,Madhya Pradesh,4100,standard,4.3,24.8473,79.9254,moderate,Eastern Group of Temples,78,"wifi, ac, breakfast, room service, parking",https://upload.wikimedia.org/wikipedia/commons/e/e7/1_Khajuraho.jpg
H165,Khajuraho Grand Hotel - Southern Group of Temples,Khajuraho,Madhya Pradesh,6600,premium,4.5,24.8243,79.9324,high,Southern Group of Temples,84,"wifi, pool, restaurant, room service, parking",https://upload.wikimedia.org/wikipedia/commons/e/e7/1_Khajuraho.jpg
H166,Gwalior Central Stay - Gwalior Fort,Gwalior,Madhya Pradesh,2400,budget,4.1,26.2288,78.1933,low,Gwalior Fort,72,"wifi, ac, breakfast, parking, heritage decor",https://upload.wikimedia.org/wikipedia/commons/1/15/Gwalior_Fort_front.jpg
H167,Gwalior Heritage Inn - Jai Vilas Palace,Gwalior,Madhya Pradesh,4100,standard,4.3,26.2338,78.1883,moderate,Jai Vilas Palace,78,"wifi, ac, breakfast, room service, parking, heritage decor",https://upload.wikimedia.org/wikipedia/commons/0/08/Jai_Vilas_Palace_%28_Scindia_Palace%29.jpg
H168,Gwalior Grand Hotel - Sun Temple Gwalior,Gwalior,Madhya Pradesh,6600,premium,4.5,26.2108,78.1953,high,Sun Temple Gwalior,84,"wifi, pool, restaurant, room service, parking",https://upload.wikimedia.org/wikipedia/commons/thumb/1/15/Gwalior_Fort_front.jpg/3840px-Gwalior_Fort_front.jpg
H169,Bhubaneswar Central Stay - Lingaraj Temple,Bhubaneswar,Odisha,2400,budget,4.1,20.3066,85.835,low,Lingaraj Temple,72,"wifi, ac, breakfast, parking",https://upload.wikimedia.org/wikipedia/commons/thumb/5/5d/Lingaraj_Temple_%2C_Bhubaneswar.jpg/1920px-Lingaraj_Temple_%2C_Bhubaneswar.jpg
H170,Bhubaneswar Heritage Inn - Mukteshwar Temple,Bhubaneswar,Odisha,4100,standard,4.3,20.3116,85.83,moderate,Mukteshwar Temple,78,"wifi, ac, breakfast, room service, parking",https://upload.wikimedia.org/wikipedia/commons/f/f0/Chauli_Ki_Jali%2C_Mukteshwar.jpg
H171,Bhubaneswar Grand Hotel - Udayagiri Khandagiri Caves,Bhubaneswar,Odisha,6600,premium,4.5,20.2886,85.837,high,Udayagiri Khandagiri Caves,84,"wifi, pool, restaurant, room service, parking",https://upload.wikimedia.org/wikipedia/commons/7/72/Khandagari_and_Udaygiri_featured_image.jpg
H172,Puri Central Stay - Jagannath Temple,Puri,Odisha,2400,budget,4.1,19.824,85.8417,low,Jagannath Temple,72,"wifi, ac, breakfast, parking",https://upload.wikimedia.org/wikipedia/commons/b/b7/Shri_Jagannath_temple.jpg
H173,Puri Heritage Inn - Puri Beach,Puri,Odisha,4100,standard,4.3,19.829,85.8367,moderate,Puri Beach,78,"wifi, ac, breakfast, room service, parking, beach access",https://upload.wikimedia.org/wikipedia/commons/e/ee/Puri_Sea_Beach_viewed_from_the_light_house.jpg
H174,Puri Grand Hotel - Narendra Tank,Puri,Odisha,6600,premium,4.5,19.806,85.8437,high,Narendra Tank,84,"wifi, pool, restaurant, room service, parking",https://upload.wikimedia.org/wikipedia/commons/5/5f/The_official_portrait_of_Shri_Narendra_Modi%2C_the_Prime_Minister_of_the_Republic_of_India.jpg
H175,Konark Central Stay - Konark Sun Temple,Konark,Odisha,2400,budget,4.1,19.8981,86.105,low,Konark Sun Temple,72,"wifi, ac, breakfast, parking",https://upload.wikimedia.org/wikipedia/commons/thumb/4/47/Konarka_Temple.jpg/1920px-Konarka_Temple.jpg
H176,Konark Heritage Inn - Chandrabhaga Beach,Konark,Odisha,4100,standard,4.3,19.9031,86.1,moderate,Chandrabhaga Beach,78,"wifi, ac, breakfast, room service, parking, beach access",https://upload.wikimedia.org/wikipedia/commons/thumb/4/43/Chandrabhaga_beach.jpg/3840px-Chandrabhaga_beach.jpg
H177,Konark Grand Hotel - ASI Museum Konark,Konark,Odisha,6600,premium,4.5,19.8801,86.107,high,ASI Museum Konark,84,"wifi, pool, restaurant, room service, parking",https://upload.wikimedia.org/wikipedia/commons/thumb/4/47/Konarka_Temple.jpg/1920px-Konarka_Temple.jpg
H178,Gangtok Central Stay - MG Marg,Gangtok,Sikkim,2400,budget,4.1,27.3494,88.617,low,MG Marg,72,"wifi, ac, breakfast, parking",https://upload.wikimedia.org/wikipedia/commons/thumb/9/97/M.G._Marg%2C_Gangtok_01.jpg/3840px-M.G._Marg%2C_Gangtok_01.jpg
H179,Gangtok Heritage Inn - Rumtek Monastery,Gangtok,Sikkim,4100,standard,4.3,27.3544,88.612,moderate,Rumtek Monastery,78,"wifi, ac, breakfast, room service, parking",https://upload.wikimedia.org/wikipedia/commons/thumb/e/e5/Vikramjit-Kakati-Rumtek.jpg/500px-Vikramjit-Kakati-Rumtek.jpg
H180,Gangtok Grand Hotel - Tashi View Point,Gangtok,Sikkim,6600,premium,4.5,27.3314,88.619,high,Tashi View Point,84,"wifi, pool, restaurant, room service, parking",https://upload.wikimedia.org/wikipedia/commons/6/6d/Changu_Lake%2C_Gangtok.jpg
H181,Shillong Central Stay - Shillong Peak,Shillong,Meghalaya,2400,budget,4.1,25.5893,91.9038,low,Shillong Peak,72,"wifi, ac, breakfast, parking",https://upload.wikimedia.org/wikipedia/commons/thumb/a/ac/Elephant_Falls_II%2C_Shillong.jpg/3840px-Elephant_Falls_II%2C_Shillong.jpg
H182,Shillong Heritage Inn - Umiam Lake,Shillong,Meghalaya,4100,standard,4.3,25.5943,91.8988,moderate,Umiam Lake,78,"wifi, ac, breakfast, room service, parking, lake views",https://upload.wikimedia.org/wikipedia/commons/6/6a/Umiam_Lake_-_by_Vikramjit_Kakati.png
H183,Shillong Grand Hotel - Elephant Falls,Shillong,Meghalaya,6600,premium,4.5,25.5713,91.9058,high,Elephant Falls,84,"wifi, pool, restaurant, room service, parking",https://upload.wikimedia.org/wikipedia/commons/3/36/Elephant_Falls_Meghalaya.jpg
H184,Tawang Central Stay - Tawang Monastery,Tawang,Arunachal Pradesh,2400,budget,4.1,27.5971,91.8738,low,Tawang Monastery,72,"wifi, ac, breakfast, parking",https://upload.wikimedia.org/wikipedia/commons/2/2a/Tawang_Monastery_%28Tibetan_Buddhist%29.jpg
H185,Tawang Heritage Inn - Sela Pass Viewpoint,Tawang,Arunachal Pradesh,4100,standard,4.3,27.6021,91.8688,moderate,Sela Pass Viewpoint,78,"wifi, ac, breakfast, room service, parking",https://upload.wikimedia.org/wikipedia/commons/thumb/5/57/India-locator-map-blank.svg/1920px-India-locator-map-blank.svg.png
H186,Tawang Grand Hotel - Madhuri Lake,Tawang,Arunachal Pradesh,6600,premium,4.5,27.5791,91.8758,high,Madhuri Lake,84,"wifi, pool, restaurant, room service, parking, lake views",https://upload.wikimedia.org/wikipedia/commons/thumb/d/db/Sangestar_Tso_Lake.jpg/3840px-Sangestar_Tso_Lake.jpg
H187,Port Blair Central Stay - Cellular Jail,Port Blair,Andaman and Nicobar Islands,2400,budget,4.1,11.6739,92.737,low,Cellular Jail,72,"wifi, ac, breakfast, parking",https://upload.wikimedia.org/wikipedia/commons/f/fe/Front_View_of_Cellular_Jail%2C_Port_Blair.JPG
H188,Port Blair Heritage Inn - Corbyn's Cove Beach,Port Blair,Andaman and Nicobar Islands,4100,standard,4.3,11.6789,92.732,moderate,Corbyn's Cove Beach,78,"wifi, ac, breakfast, room service, parking, beach access",https://upload.wikimedia.org/wikipedia/commons/thumb/4/4c/Ross_Island_%28Netaji_Subhas_Bose_Island%29.jpg/3840px-Ross_Island_%28Netaji_Subhas_Bose_Island%29.jpg
H189,Port Blair Grand Hotel - Ross Island Ruins,Port Blair,Andaman and Nicobar Islands,6600,premium,4.5,11.6559,92.739,high,Ross Island Ruins,84,"wifi, pool, restaurant, room service, parking",https://upload.wikimedia.org/wikipedia/commons/thumb/4/4c/Ross_Island_%28Netaji_Subhas_Bose_Island%29.jpg/3840px-Ross_Island_%28Netaji_Subhas_Bose_Island%29.jpg
H190,Panaji Central Stay - Fontainhas Latin Quarter,Panaji,Goa,2400,budget,4.1,15.5014,73.8383,low,Fontainhas Latin Quarter,72,"wifi, ac, breakfast, parking",https://upload.wikimedia.org/wikipedia/commons/d/db/Road_along_Vasco-da-gama_residence_in_Fontainhas%2C_Panaji.jpg
H191,Panaji Heritage Inn - Our Lady of the Immaculate Conception Church,Panaji,Goa,4100,standard,4.3,15.5064,73.8333,moderate,Our Lady of the Immaculate Conception Church,78,"wifi, ac, breakfast, room service, parking",https://upload.wikimedia.org/wikipedia/commons/thumb/c/c9/Panaji%2C_nostra_signora_dell%27immacolata_concezione%2C_esterno_04.jpg/3840px-Panaji%2C_nostra_signora_dell%27immacolata_concezione%2C_esterno_04.jpg
H192,Panaji Grand Hotel - Miramar Beach,Panaji,Goa,6600,premium,4.5,15.4834,73.8403,high,Miramar Beach,84,"wifi, pool, restaurant, room service, parking, beach access",https://upload.wikimedia.org/wikipedia/commons/thumb/b/bb/Miramar_24022016.jpg/3840px-Miramar_24022016.jpg
H193,Tirupati Central Stay - Sri Venkateswara Temple,Tirupati,Andhra Pradesh,2400,budget,4.1,13.6393,79.4297,low,Sri Venkateswara Temple,72,"wifi, ac, breakfast, parking",https://upload.wikimedia.org/wikipedia/commons/4/4e/Tirumala_090615.jpg
H194,Tirupati Heritage Inn - Akasa Ganga,Tirupati,Andhra Pradesh,4100,standard,4.3,13.6443,79.4247,moderate,Akasa Ganga,78,"wifi, ac, breakfast, room service, parking",https://upload.wikimedia.org/wikipedia/commons/thumb/4/4e/Tirumala_090615.jpg/3840px-Tirumala_090615.jpg
H195,Tirupati Grand Hotel - Silathoranam,Tirupati,Andhra Pradesh,6600,premium,4.5,13.6213,79.4317,high,Silathoranam,84,"wifi, pool, restaurant, room service, parking",https://upload.wikimedia.org/wikipedia/commons/thumb/4/4e/Tirumala_090615.jpg/3840px-Tirumala_090615.jpg
H196,Varkala Central Stay - Varkala Cliff,Varkala,Kerala,2400,budget,4.1,8.7484,76.7268,low,Varkala Cliff,72,"wifi, ac, breakfast, parking, beach access",https://upload.wikimedia.org/wikipedia/commons/e/e0/Varkala_beach_from_above.jpg
H197,Varkala Heritage Inn - Papanasam Beach,Varkala,Kerala,4100,standard,4.3,8.7534,76.7218,moderate,Papanasam Beach,78,"wifi, ac, breakfast, room service, parking, beach access",https://upload.wikimedia.org/wikipedia/commons/thumb/4/49/Varkala_Beach%2C_Varkala%2C_Kerala.jpg/960px-Varkala_Beach%2C_Varkala%2C_Kerala.jpg
H198,Varkala Grand Hotel - Janardanaswamy Temple,Varkala,Kerala,6600,premium,4.5,8.7304,76.7288,high,Janardanaswamy Temple,84,"wifi, pool, restaurant, room service, parking",https://upload.wikimedia.org/wikipedia/commons/thumb/8/8a/Janardhana_swamy_temple.jpg/1280px-Janardhana_swamy_temple.jpg
H199,Mahabalipuram Central Stay - Shore Temple,Mahabalipuram,Tamil Nadu,2400,budget,4.1,12.6374,80.2032,low,Shore Temple,72,"wifi, ac, breakfast, parking",https://upload.wikimedia.org/wikipedia/commons/thumb/7/74/Shore_Temple_-Mamallapuram_-Tamil_Nadu_-N-TN-C55.jpg/3840px-Shore_Temple_-Mamallapuram_-Tamil_Nadu_-N-TN-C55.jpg
H200,Mahabalipuram Heritage Inn - Five Rathas,Mahabalipuram,Tamil Nadu,4100,standard,4.3,12.6424,80.1982,moderate,Five Rathas,78,"wifi, ac, breakfast, room service, parking",https://upload.wikimedia.org/wikipedia/commons/thumb/c/c2/Five_Rathas_at_Mahaballipuram%2CTamil_Nadu.jpg/1920px-Five_Rathas_at_Mahaballipuram%2CTamil_Nadu.jpg
H201,Mahabalipuram Grand Hotel - Arjuna's Penance,Mahabalipuram,Tamil Nadu,6600,premium,4.5,12.6194,80.2052,high,Arjuna's Penance,84,"wifi, pool, restaurant, room service, parking",https://upload.wikimedia.org/wikipedia/commons/thumb/6/69/Descent_of_the_Ganges_01.jpg/3840px-Descent_of_the_Ganges_01.jpg
H202,Mount Abu Central Stay - Nakki Lake,Mount Abu,Rajasthan,2400,budget,4.1,24.6031,72.7261,low,Nakki Lake,72,"wifi, ac, breakfast, parking, lake views",https://upload.wikimedia.org/wikipedia/commons/thumb/d/d3/Nakki_Lake_during_daytime.JPG/3840px-Nakki_Lake_during_daytime.JPG
H203,Mount Abu Heritage Inn - Dilwara Temples,Mount Abu,Rajasthan,4100,standard,4.3,24.6081,72.7211,moderate,Dilwara Temples,78,"wifi, ac, breakfast, room service, parking",https://upload.wikimedia.org/wikipedia/commons/8/81/Delwada.jpg
H204,Mount Abu Grand Hotel - Guru Shikhar,Mount Abu,Rajasthan,6600,premium,4.5,24.5851,72.7281,high,Guru Shikhar,84,"wifi, pool, restaurant, room service, parking",https://upload.wikimedia.org/wikipedia/commons/thumb/8/8a/Arbuda_Mountains.JPG/1920px-Arbuda_Mountains.JPG
H205,Ajmer Central Stay - Ajmer Sharif Dargah,Ajmer,Rajasthan,2400,budget,4.1,26.4604,74.6504,low,Ajmer Sharif Dargah,72,"wifi, ac, breakfast, parking",https://upload.wikimedia.org/wikipedia/commons/6/6d/Dargah_of_Sufi_saint_Moinuddin_Chishti_Ajmer_India_%285%29.JPG
H206,Ajmer Heritage Inn - Ana Sagar Lake,Ajmer,Rajasthan,4100,standard,4.3,26.4654,74.6454,moderate,Ana Sagar Lake,78,"wifi, ac, breakfast, room service, parking, lake views",https://upload.wikimedia.org/wikipedia/commons/thumb/f/f1/The_Anas%C4%81gar_Lake_1_PHOTOGRAPHED_BY_FATEH.RawKEy.jpg/500px-The_Anas%C4%81gar_Lake_1_PHOTOGRAPHED_BY_FATEH.RawKEy.jpg
H207,Ajmer Grand Hotel - Adhai Din Ka Jhonpra,Ajmer,Rajasthan,6600,premium,4.5,26.4424,74.6524,high,Adhai Din Ka Jhonpra,84,"wifi, pool, restaurant, room service, parking",https://upload.wikimedia.org/wikipedia/commons/d/d3/Adhai_Din-ka-Jhonpra_Screen_wall_%286133975257%29.jpg
H208,Orchha Central Stay - Raja Mahal,Orchha,Madhya Pradesh,2400,budget,4.1,25.3615,78.6505,low,Raja Mahal,72,"wifi, ac, breakfast, parking",https://upload.wikimedia.org/wikipedia/commons/thumb/f/f4/Orchha_Fort_and_Bridge.jpg/960px-Orchha_Fort_and_Bridge.jpg
H209,Orchha Heritage Inn - Jahangir Mahal,Orchha,Madhya Pradesh,4100,standard,4.3,25.3665,78.6455,moderate,Jahangir Mahal,78,"wifi, ac, breakfast, room service, parking",https://upload.wikimedia.org/wikipedia/commons/thumb/3/3e/Le_Jehangir_Mahal_%28Orchha%29_%288451914174%29.jpg/1280px-Le_Jehangir_Mahal_%28Orchha%29_%288451914174%29.jpg
H210,Orchha Grand Hotel - Chaturbhuj Temple,Orchha,Madhya Pradesh,6600,premium,4.5,25.3435,78.6525,high,Chaturbhuj Temple,84,"wifi, pool, restaurant, room service, parking",https://upload.wikimedia.org/wikipedia/commons/thumb/4/48/Chaturbhuj_Temple%2C_Orchha.jpg/3840px-Chaturbhuj_Temple%2C_Orchha.jpg
H211,McLeod Ganj Central Stay - Namgyal Monastery,McLeod Ganj,Himachal Pradesh,2400,budget,4.1,32.2531,76.3324,low,Namgyal Monastery,72,"wifi, ac, breakfast, parking",https://upload.wikimedia.org/wikipedia/commons/thumb/4/44/McLeod_Ganj_Dharamkot_Dharmsala_Himachal_Pradesh_India_April_2014.jpg/3840px-McLeod_Ganj_Dharamkot_Dharmsala_Himachal_Pradesh_India_April_2014.jpg
H212,McLeod Ganj Heritage Inn - Bhagsu Waterfall,McLeod Ganj,Himachal Pradesh,4100,standard,4.3,32.2581,76.3274,moderate,Bhagsu Waterfall,78,"wifi, ac, breakfast, room service, parking",https://upload.wikimedia.org/wikipedia/commons/thumb/4/44/McLeod_Ganj_Dharamkot_Dharmsala_Himachal_Pradesh_India_April_2014.jpg/3840px-McLeod_Ganj_Dharamkot_Dharmsala_Himachal_Pradesh_India_April_2014.jpg
H213,McLeod Ganj Grand Hotel - Dalai Lama Temple Complex,McLeod Ganj,Himachal Pradesh,6600,premium,4.5,32.2351,76.3344,high,Dalai Lama Temple Complex,84,"wifi, pool, restaurant, room service, parking, lake views",https://upload.wikimedia.org/wikipedia/commons/b/be/Namgyal_Monastery_India_Himachal_Pradesh_Mc_Leod_Ganj.jpg
H214,Kanyakumari Central Stay - Vivekananda Rock Memorial,Kanyakumari,Tamil Nadu,2400,budget,4.1,8.0988,77.549,low,Vivekananda Rock Memorial,72,"wifi, ac, breakfast, parking",https://upload.wikimedia.org/wikipedia/commons/b/b6/RockMemorial.jpg
H215,Kanyakumari Heritage Inn - Thiruvalluvar Statue,Kanyakumari,Tamil Nadu,4100,standard,4.3,8.1038,77.544,moderate,Thiruvalluvar Statue,78,"wifi, ac, breakfast, room service, parking",https://upload.wikimedia.org/wikipedia/commons/d/d7/Thiruvalluvar_Statue_at_Kanyakumari_02.jpg
H216,Kanyakumari Grand Hotel - Kanyakumari Beach,Kanyakumari,Tamil Nadu,6600,premium,4.5,8.0808,77.551,high,Kanyakumari Beach,84,"wifi, pool, restaurant, room service, parking, beach access",https://upload.wikimedia.org/wikipedia/commons/thumb/5/59/KanniyakumariCollageMontage.jpg/1920px-KanniyakumariCollageMontage.jpg
H217,Ujjain Central Stay - Mahakaleshwar Temple,Ujjain,Madhya Pradesh,2400,budget,4.1,23.187,75.799,low,Mahakaleshwar Temple,72,"wifi, ac, breakfast, parking",https://upload.wikimedia.org/wikipedia/commons/thumb/7/75/Mahakaleshwar_Temple%2C_Ujjain.jpg/3840px-Mahakaleshwar_Temple%2C_Ujjain.jpg
H218,Ujjain Heritage Inn - Ram Ghat,Ujjain,Madhya Pradesh,4100,standard,4.3,23.192,75.794,moderate,Ram Ghat,78,"wifi, ac, breakfast, room service, parking, river views",https://upload.wikimedia.org/wikipedia/commons/thumb/7/75/Mahakaleshwar_Temple%2C_Ujjain.jpg/3840px-Mahakaleshwar_Temple%2C_Ujjain.jpg
H219,Ujjain Grand Hotel - Kal Bhairav Temple,Ujjain,Madhya Pradesh,6600,premium,4.5,23.169,75.801,high,Kal Bhairav Temple,84,"wifi, pool, restaurant, room service, parking",https://upload.wikimedia.org/wikipedia/commons/thumb/6/6b/Kal_Bhairav_temple_Ujjain.jpg/3840px-Kal_Bhairav_temple_Ujjain.jpg
H220,Kozhikode Central Stay - Kozhikode Beach,Kozhikode,Kerala,2400,budget,4.1,11.2693,75.7909,low,Kozhikode Beach,72,"wifi, ac, breakfast, parking, beach access",https://upload.wikimedia.org/wikipedia/commons/thumb/d/dc/Kozhikode_Beach_Coastline.jpg/1920px-Kozhikode_Beach_Coastline.jpg
H221,Kozhikode Heritage Inn - SM Street,Kozhikode,Kerala,4100,standard,4.3,11.2743,75.7859,moderate,SM Street,78,"wifi, ac, breakfast, room service, parking",https://upload.wikimedia.org/wikipedia/commons/thumb/5/51/SK_Pottekkat_Bust.JPG/3840px-SK_Pottekkat_Bust.JPG
H222,Kozhikode Grand Hotel - Thusharagiri Falls,Kozhikode,Kerala,6600,premium,4.5,11.2513,75.7929,high,Thusharagiri Falls,84,"wifi, pool, restaurant, room service, parking",https://upload.wikimedia.org/wikipedia/commons/thumb/4/43/Thusharagiri_3.jpg/1920px-Thusharagiri_3.jpg
H223,Vadodara Central Stay,Vadodara,Generated Region,2200.0,budget,4.2,32.472,77.786,low,Vadodara Heritage Quarter,78,"wifi, ac, breakfast, parking",https://upload.wikimedia.org/wikipedia/commons/thumb/6/65/No-Image-Placeholder.svg/640px-No-Image-Placeholder.svg.png
H224,Vadodara Heritage Inn,Vadodara,Generated Region,4200.0,standard,4.4,32.484,77.792,moderate,Vadodara Central Market,84,"wifi, ac, breakfast, parking",https://upload.wikimedia.org/wikipedia/commons/thumb/6/65/No-Image-Placeholder.svg/640px-No-Image-Placeholder.svg.png
H225,Vadodara Grand Hotel,Vadodara,Generated Region,6900.0,premium,4.6,32.496,77.798,high,Vadodara City Lakefront,90,"wifi, ac, breakfast, parking",https://upload.wikimedia.org/wikipedia/commons/thumb/6/65/No-Image-Placeholder.svg/640px-No-Image-Placeholder.svg.png
