id,name,city,state,category,tags,rating,price_estimate,duration_hours,latitude,longitude,popularity_score,best_time,family_friendly,foreign_tourist_friendly,description,image_url
P001,Baga Beach,Goa,Goa,beach,"beach,nightlife,water-sports,north-goa",4.7,0,3,15.5553,73.7517,95,winter,true,true,"Popular beach escape in Goa with beachfront scenery, nightlife, and water sports.",https://upload.wikimedia.org/wikipedia/commons/a/a8/Baga_Beach%2C_Calangute%2C_Goa.jpg
P002,Calangute Beach,Goa,Goa,beach,"beach,family,sunset,north-goa",4.5,0,3,15.5439,73.7553,92,winter,true,true,"Popular beach escape in Goa with beachfront scenery, family outings, and sunset views.",https://upload.wikimedia.org/wikipedia/commons/thumb/8/81/Sunset_at_Calangute.jpg/3840px-Sunset_at_Calangute.jpg
P003,Anjuna Beach,Goa,Goa,beach,"beach,nightlife,flea-market,north-goa",4.6,0,3,15.5777,73.7391,90,winter,true,true,"Popular beach escape in Goa with beachfront scenery, nightlife, and flea market.",https://upload.wikimedia.org/wikipedia/commons/c/cf/Anjuna_Beach%2C_Goa%2C_India%2C_Legendary_Curlies_beach_shack.jpg
P004,Vagator Beach,Goa,Goa,beach,"beach,cliffs,sunset,north-goa",4.6,0,2.5,15.5986,73.7346,89,winter,true,true,"Popular beach escape in Goa with beachfront scenery, dramatic cliffs, and sunset views.",https://upload.wikimedia.org/wikipedia/commons/thumb/f/fc/BeachFun.jpg/3840px-BeachFun.jpg
P005,Dudhsagar Falls,Goa,Goa,nature,"waterfall,nature,scenic,day-trip",4.8,400,4,15.3144,74.3143,93,monsoon,true,true,"Popular nature retreat in Goa with waterfall views, natural beauty, and scenic.",https://upload.wikimedia.org/wikipedia/commons/a/ad/Fort_aguada.jpg
P006,Basilica of Bom Jesus,Goa,Goa,heritage,"church,heritage,unesco,old-goa",4.7,0,1.5,15.5009,73.9110,88,winter,true,true,"Popular heritage landmark in Goa with church, heritage appeal, and UNESCO heritage value.",https://upload.wikimedia.org/wikipedia/commons/0/0b/Doodhsagar_Fall.jpg
P007,Fort Aguada,Goa,Goa,fort,"fort,heritage,sunset,coastal",4.5,0,1.5,15.4929,73.7681,85,winter,true,true,"Popular historic fort in Goa with fort architecture, heritage appeal, and sunset views.",https://upload.wikimedia.org/wikipedia/commons/9/9e/Front_Elevation_of_Basilica_of_Bom_Jesus.jpg
P008,Chapora Fort,Goa,Goa,fort,"fort,viewpoint,sunset,clifftop",4.5,0,1.5,15.5928,73.7343,84,winter,true,true,"Popular historic fort in Goa with fort architecture, panoramic views, and sunset views.",https://upload.wikimedia.org/wikipedia/commons/3/35/Fort_Chapora_26012016.jpg
P009,Palolem Beach,Goa,Goa,beach,"beach,relaxed,south-goa,kayaking",4.7,0,3,15.0099,74.0232,91,winter,true,true,"Popular beach escape in Goa with beachfront scenery, relaxed, and South Goa calm.",https://upload.wikimedia.org/wikipedia/commons/9/9c/Palolem_Beach%2C_South_Goa.jpg
P010,Colva Beach,Goa,Goa,beach,"beach,family,south-goa,waterfront",4.4,0,2.5,15.2797,73.9228,80,winter,true,true,"Popular beach escape in Goa with beachfront scenery, family outings, and South Goa calm.",https://upload.wikimedia.org/wikipedia/commons/thumb/f/fc/BeachFun.jpg/3840px-BeachFun.jpg
P011,Hawa Mahal,Jaipur,Rajasthan,palace,"palace,heritage,photography,old-city",4.6,200,1.5,26.9239,75.8267,96,winter,true,true,"Popular royal palace in Jaipur with royal architecture, heritage appeal, and photo spots.",https://upload.wikimedia.org/wikipedia/commons/4/41/East_facade_Hawa_Mahal_Jaipur_from_ground_level_%28July_2022%29_-_img_01.jpg
P012,City Palace Jaipur,Jaipur,Rajasthan,palace,"palace,museum,heritage,royal",4.7,700,2.5,26.9258,75.8237,95,winter,true,true,"Popular royal palace in Jaipur with royal architecture, local history, and heritage appeal.",https://upload.wikimedia.org/wikipedia/commons/f/fb/20191219_Fort_Amber%2C_Amer%2C_Jaipur_0955_9481.jpg
P013,Amber Fort,Jaipur,Rajasthan,fort,"fort,heritage,viewpoint,architecture",4.7,500,3,26.9855,75.8513,97,winter,true,true,"Popular historic fort in Jaipur with fort architecture, heritage appeal, and panoramic views.",https://upload.wikimedia.org/wikipedia/commons/a/a4/Chandra_Mahal%2C_City_Palace%2C_Jaipur%2C_20191218_0951_9043.jpg
P014,Nahargarh Fort,Jaipur,Rajasthan,fort,"fort,sunrise,viewpoint,heritage",4.6,200,2,26.9368,75.8153,90,winter,true,true,"Popular historic fort in Jaipur with fort architecture, sunrise views, and panoramic views.",https://upload.wikimedia.org/wikipedia/commons/3/3f/Jantar_Mantar_at_Jaipur.jpg
P015,Jal Mahal,Jaipur,Rajasthan,lake,"lake,photography,viewpoint,heritage",4.4,0,1,26.9536,75.8468,82,winter,true,true,"Popular lakeside attraction in Jaipur with lake views, photo spots, and panoramic views.",https://upload.wikimedia.org/wikipedia/commons/4/47/Nahargarh_13.jpg
P016,Jantar Mantar Jaipur,Jaipur,Rajasthan,museum,"museum,heritage,unesco,astronomy",4.6,200,1.5,26.9248,75.8246,87,winter,true,true,"Popular cultural museum in Jaipur with local history, heritage appeal, and UNESCO heritage value.",https://upload.wikimedia.org/wikipedia/commons/1/18/Albert_Hall_%28_Jaipur_%29.jpg
P017,Albert Hall Museum,Jaipur,Rajasthan,museum,"museum,heritage,art,history",4.5,150,1.5,26.9124,75.8196,83,winter,true,true,"Popular cultural museum in Jaipur with local history, heritage appeal, and ART.",https://upload.wikimedia.org/wikipedia/commons/f/ff/Jaipur_03-2016_39_Jal_Mahal_-_Water_Palace.jpg
P018,Johari Bazaar,Jaipur,Rajasthan,market,"market,shopping,jewelry,street-food",4.5,0,2,26.9230,75.8266,88,winter,true,true,"Popular local market in Jaipur with local shopping, shopping, and jewelry.",https://upload.wikimedia.org/wikipedia/commons/thumb/4/41/East_facade_Hawa_Mahal_Jaipur_from_ground_level_%28July_2022%29_-_img_01.jpg/1920px-East_facade_Hawa_Mahal_Jaipur_from_ground_level_%28July_2022%29_-_img_01.jpg
P019,Patrika Gate,Jaipur,Rajasthan,heritage,"architecture,photography,heritage,colorful",4.6,0,1,26.8508,75.8046,78,winter,true,true,"Popular heritage landmark in Jaipur with striking architecture, photo spots, and heritage appeal.",https://upload.wikimedia.org/wikipedia/commons/thumb/d/d6/Birla_Mandir_Jaipur_%282022-07%29.jpg/3840px-Birla_Mandir_Jaipur_%282022-07%29.jpg
P020,Jaigarh Fort,Jaipur,Rajasthan,fort,"fort,heritage,cannon,viewpoint",4.5,150,2.5,26.9850,75.8491,84,winter,true,true,"Popular historic fort in Jaipur with fort architecture, heritage appeal, and cannon.",https://upload.wikimedia.org/wikipedia/commons/thumb/4/41/East_facade_Hawa_Mahal_Jaipur_from_ground_level_%28July_2022%29_-_img_01.jpg/1920px-East_facade_Hawa_Mahal_Jaipur_from_ground_level_%28July_2022%29_-_img_01.jpg
P021,City Palace Udaipur,Udaipur,Rajasthan,palace,"palace,heritage,museum,royal",4.8,400,3,24.5767,73.6835,97,winter,true,true,"Popular royal palace in Udaipur with royal architecture, heritage appeal, and local history.",https://upload.wikimedia.org/wikipedia/commons/thumb/6/69/Udaipur_City_Palace.jpg/1920px-Udaipur_City_Palace.jpg
P022,Lake Pichola,Udaipur,Rajasthan,lake,"lake,boat-ride,sunset,scenic",4.8,400,2.5,24.5755,73.6807,98,winter,true,true,"Popular lakeside attraction in Udaipur with lake views, boat ride, and sunset views.",https://upload.wikimedia.org/wikipedia/commons/d/d2/Udaipur_Lake_India.JPG
P023,Fateh Sagar Lake,Udaipur,Rajasthan,lake,"lake,sunset,boating,viewpoint",4.7,0,2,24.6015,73.6776,91,winter,true,true,"Popular lakeside attraction in Udaipur with lake views, sunset views, and boating experiences.",https://upload.wikimedia.org/wikipedia/commons/thumb/2/20/Monsoon_Palace.jpg/500px-Monsoon_Palace.jpg
P024,Sajjangarh Monsoon Palace,Udaipur,Rajasthan,palace,"palace,sunset,viewpoint,hills",4.6,350,2,24.5925,73.6671,89,winter,true,true,"Popular royal palace in Udaipur with royal architecture, sunset views, and panoramic views.",https://upload.wikimedia.org/wikipedia/commons/e/ed/Jagdish_Temple_Udaipur.jpg
P025,Bagore Ki Haveli,Udaipur,Rajasthan,heritage,"heritage,museum,cultural-show,old-city",4.6,150,2,24.5798,73.6834,87,winter,true,true,"Popular heritage landmark in Udaipur with heritage appeal, local history, and cultural show.",https://upload.wikimedia.org/wikipedia/commons/5/50/Fatehsagar_nehrugarden.jpg
P026,Saheliyon Ki Bari,Udaipur,Rajasthan,nature,"garden,heritage,family,photography",4.4,50,1.5,24.6009,73.6863,79,winter,true,true,"Popular nature retreat in Udaipur with green spaces, heritage appeal, and family outings.",https://upload.wikimedia.org/wikipedia/commons/8/84/Saheliyon-ki-Bari_Fountain.JPG
P027,Jagdish Temple,Udaipur,Rajasthan,temple,"temple,heritage,spiritual,architecture",4.7,0,1,24.5788,73.6832,85,winter,true,true,"Popular sacred temple in Udaipur with spiritual atmosphere, heritage appeal, and striking architecture.",https://upload.wikimedia.org/wikipedia/commons/9/96/Bagore_ki_Haveli%2C_Rajasthan.jpg
P028,Karni Mata Temple Ropeway,Udaipur,Rajasthan,viewpoint,"viewpoint,ropeway,sunset,hills",4.5,160,1.5,24.5714,73.6907,81,winter,true,true,"Popular scenic viewpoint in Udaipur with panoramic views, ropeway, and sunset views.",https://upload.wikimedia.org/wikipedia/commons/thumb/4/4b/KarniMata.jpg/1920px-KarniMata.jpg
P029,Shilpgram,Udaipur,Rajasthan,market,"crafts,culture,market,village-experience",4.4,50,2,24.6224,73.6840,76,winter,true,true,"Popular local market in Udaipur with crafts, cultural experiences, and local shopping.",https://upload.wikimedia.org/wikipedia/commons/thumb/c/cd/Mandana_art_work_at_shilpgram.JPG/3840px-Mandana_art_work_at_shilpgram.JPG
P030,Gangaur Ghat,Udaipur,Rajasthan,heritage,"ghat,lake,old-city,photography",4.6,0,1,24.5792,73.6830,83,winter,true,true,"Popular heritage landmark in Udaipur with ghat atmosphere, lake views, and old-city charm.",https://upload.wikimedia.org/wikipedia/commons/5/52/Ahar_Cenotaphs.JPG
P031,Red Fort,Delhi,Delhi,fort,"fort,heritage,unesco,history",4.6,35,2.5,28.6562,77.2410,96,winter,true,true,"Popular historic fort in Delhi with fort architecture, heritage appeal, and UNESCO heritage value.",https://upload.wikimedia.org/wikipedia/commons/0/09/India_Gate_in_New_Delhi_03-2016.jpg
P032,Qutub Minar,Delhi,Delhi,heritage,"heritage,unesco,architecture,history",4.7,35,2,28.5244,77.1855,95,winter,true,true,"Popular heritage landmark in Delhi with heritage appeal, UNESCO heritage value, and striking architecture.",https://upload.wikimedia.org/wikipedia/commons/2/2a/Delhi_fort.jpg
P033,India Gate,Delhi,Delhi,heritage,"monument,heritage,evening,family",4.6,0,1.5,28.6129,77.2295,94,winter,true,true,"Popular heritage landmark in Delhi with monumental design, heritage appeal, and evening.",https://upload.wikimedia.org/wikipedia/commons/3/3c/Qutb_Minar_2022.jpg
P034,Humayun's Tomb,Delhi,Delhi,heritage,"heritage,unesco,gardens,architecture",4.6,40,2,28.5933,77.2507,90,winter,true,true,"Popular heritage landmark in Delhi with heritage appeal, UNESCO heritage value, and gardens.",https://upload.wikimedia.org/wikipedia/commons/f/fc/LotusDelhi.jpg
P035,Lotus Temple,Delhi,Delhi,heritage,"architecture,spiritual,peaceful,landmark",4.5,0,1.5,28.5535,77.2588,88,winter,true,true,"Popular heritage landmark in Delhi with striking architecture, spiritual atmosphere, and peaceful surroundings.",https://upload.wikimedia.org/wikipedia/commons/d/d2/Tomb_of_Humayun%2C_Delhi.jpg
P036,Akshardham,Delhi,Delhi,temple,"temple,cultural,architecture,family",4.7,0,3,28.6127,77.2773,93,winter,true,true,"Popular sacred temple in Delhi with spiritual atmosphere, cultural, and striking architecture.",https://upload.wikimedia.org/wikipedia/commons/thumb/e/e9/Swaminarayan_Akshardham%2C_Delhi.jpg/500px-Swaminarayan_Akshardham%2C_Delhi.jpg
P037,Chandni Chowk,Delhi,Delhi,market,"market,street-food,heritage,bazaar",4.5,0,3,28.6506,77.2303,91,winter,true,true,"Popular local market in Delhi with local shopping, street food, and heritage appeal.",https://upload.wikimedia.org/wikipedia/commons/a/a4/Jama_Masjid_-_In_the_Noon.jpg
P038,Lodhi Garden,Delhi,Delhi,nature,"garden,walks,heritage,relaxed",4.6,0,1.5,28.5931,77.2197,82,winter,true,true,"Popular nature retreat in Delhi with green spaces, walks, and heritage appeal.",https://upload.wikimedia.org/wikipedia/commons/thumb/4/40/Jama_Masjid_2011.jpg/1920px-Jama_Masjid_2011.jpg
P039,National Museum Delhi,Delhi,Delhi,museum,"museum,history,culture,art",4.4,20,2,28.6118,77.2196,78,winter,true,true,"Popular cultural museum in Delhi with local history, rich history, and cultural experiences.",https://upload.wikimedia.org/wikipedia/commons/4/45/Lodhi_Gardens_on_a_sunny_day.jpg
P040,Connaught Place,Delhi,Delhi,market,"market,shopping,food,central",4.6,0,2.5,28.6315,77.2167,89,winter,true,true,"Popular local market in Delhi with local shopping, shopping, and local food culture.",https://upload.wikimedia.org/wikipedia/commons/f/f3/Gandhi_Memorial.jpg
P041,Triveni Ghat,Rishikesh,Uttarakhand,heritage,"ghat,spiritual,evening-aarti,ganges",4.7,0,1.5,30.1084,78.2948,92,all,true,true,"Popular heritage landmark in Rishikesh with ghat atmosphere, spiritual atmosphere, and evening aarti.",https://upload.wikimedia.org/wikipedia/commons/7/75/Rishikesh-Lakshman_Jhula_by_Kaustubh_Nayyar.jpg
P042,Lakshman Jhula,Rishikesh,Uttarakhand,heritage,"bridge,landmark,viewpoint,spiritual",4.4,0,1,30.1320,78.3303,86,all,true,true,"Popular heritage landmark in Rishikesh with bridge, landmark, and panoramic views.",https://upload.wikimedia.org/wikipedia/commons/0/08/Triveni_Ghat_Krishna_Arjun_Rath.jpg
P043,Ram Jhula,Rishikesh,Uttarakhand,heritage,"bridge,landmark,walks,ganges",4.5,0,1,30.1210,78.3209,84,all,true,true,"Popular heritage landmark in Rishikesh with bridge, landmark, and walks.",https://upload.wikimedia.org/wikipedia/commons/thumb/1/11/Ramjhula_-_bridge_over_the_Ganga.jpg/500px-Ramjhula_-_bridge_over_the_Ganga.jpg
P044,Parmarth Niketan,Rishikesh,Uttarakhand,temple,"ashram,spiritual,yoga,ganges",4.7,0,2,30.1270,78.3297,89,all,true,true,"Popular sacred temple in Rishikesh with ashram, spiritual atmosphere, and yoga.",https://upload.wikimedia.org/wikipedia/commons/thumb/7/74/Trayambakeshwar_Temple_VK.jpg/3840px-Trayambakeshwar_Temple_VK.jpg
P045,Beatles Ashram,Rishikesh,Uttarakhand,heritage,"ashram,graffiti,culture,forest",4.4,200,2,30.1170,78.3256,83,all,true,true,"Popular heritage landmark in Rishikesh with ashram, graffiti, and cultural experiences.",https://upload.wikimedia.org/wikipedia/commons/thumb/3/3c/Parmarth.jpg/250px-Parmarth.jpg
P046,Neer Garh Waterfall,Rishikesh,Uttarakhand,nature,"waterfall,trekking,nature,scenic",4.5,30,2.5,30.1441,78.3327,85,all,true,true,"Popular nature retreat in Rishikesh with waterfall views, trekking routes, and natural beauty.",https://upload.wikimedia.org/wikipedia/commons/thumb/7/74/Trayambakeshwar_Temple_VK.jpg/3840px-Trayambakeshwar_Temple_VK.jpg
P047,Trayambakeshwar Temple,Rishikesh,Uttarakhand,temple,"temple,spiritual,landmark,river-view",4.6,0,1,30.1318,78.3304,80,all,true,true,"Popular sacred temple in Rishikesh with spiritual atmosphere, landmark, and river view.",https://upload.wikimedia.org/wikipedia/commons/thumb/7/76/IE_Rajaji.jpg/1280px-IE_Rajaji.jpg
P048,Shivpuri Riverside,Rishikesh,Uttarakhand,nature,"riverside,camping,rafting,scenic",4.7,0,3,30.1205,78.3996,88,all,true,true,"Popular nature retreat in Rishikesh with riverside, camping, and rafting.",https://upload.wikimedia.org/wikipedia/commons/thumb/3/3b/Scindia_cenotaphs%2C_shivpuri.jpg/3840px-Scindia_cenotaphs%2C_shivpuri.jpg
P049,Vashishta Gufa,Rishikesh,Uttarakhand,temple,"cave,spiritual,meditation,quiet",4.6,0,1.5,30.0871,78.3535,76,all,true,true,"Popular sacred temple in Rishikesh with cave, spiritual atmosphere, and meditation.",https://upload.wikimedia.org/wikipedia/commons/thumb/7/74/Trayambakeshwar_Temple_VK.jpg/3840px-Trayambakeshwar_Temple_VK.jpg
P050,Kunjapuri Temple,Rishikesh,Uttarakhand,viewpoint,"sunrise,temple,hills,viewpoint",4.8,0,2.5,30.1238,78.3636,87,winter,true,true,"Popular scenic viewpoint in Rishikesh with sunrise views, spiritual atmosphere, and hill scenery.",https://upload.wikimedia.org/wikipedia/commons/thumb/7/74/Trayambakeshwar_Temple_VK.jpg/3840px-Trayambakeshwar_Temple_VK.jpg
P051,Hadimba Devi Temple,Manali,Himachal Pradesh,temple,"temple,forest,heritage,spiritual",4.7,0,1.5,32.2430,77.1894,92,summer,true,true,"Popular sacred temple in Manali with spiritual atmosphere, forest surroundings, and heritage appeal.",https://upload.wikimedia.org/wikipedia/commons/1/1d/Taj_Mahal_%28Edited%29.jpeg
P052,Solang Valley,Manali,Himachal Pradesh,nature,"valley,adventure,scenic,snow",4.7,0,3,32.3169,77.1557,96,summer,true,true,"Popular nature retreat in Manali with valley, adventure seekers, and scenic.",https://upload.wikimedia.org/wikipedia/commons/7/7e/Agra_03-2016_10_Agra_Fort.jpg
P053,Rohtang Pass Viewpoint,Manali,Himachal Pradesh,viewpoint,"mountains,snow,viewpoint,day-trip",4.8,600,4,32.3715,77.2462,95,summer,true,true,"Popular scenic viewpoint in Manali with mountains, snow views, and panoramic views.",https://upload.wikimedia.org/wikipedia/commons/8/8d/Mehtab_Bagh_facing_Taj_Mahal.JPG
P054,Old Manali,Manali,Himachal Pradesh,market,"cafes,market,walks,backpacker",4.6,0,2.5,32.2438,77.1886,88,summer,true,true,"Popular local market in Manali with cafes, local shopping, and walks.",https://upload.wikimedia.org/wikipedia/commons/b/b5/Fatehput_Sikiri_Buland_Darwaza_gate_2010.jpg
P055,Manu Temple,Manali,Himachal Pradesh,temple,"temple,heritage,old-manali,spiritual",4.5,0,1,32.2458,77.1880,80,summer,true,true,"Popular sacred temple in Manali with spiritual atmosphere, heritage appeal, and old manali.",https://upload.wikimedia.org/wikipedia/commons/thumb/7/70/Moti_Masjid%2CAgra.jpg/3840px-Moti_Masjid%2CAgra.jpg
P056,Jogini Waterfall,Manali,Himachal Pradesh,nature,"waterfall,trekking,nature,forest",4.6,0,2.5,32.2717,77.1870,84,summer,true,true,"Popular nature retreat in Manali with waterfall views, trekking routes, and natural beauty.",https://upload.wikimedia.org/wikipedia/commons/thumb/5/5a/Jami_Masjid_-Agra_-Uttar_Pradesh_-IMG_0282.jpg/1920px-Jami_Masjid_-Agra_-Uttar_Pradesh_-IMG_0282.jpg
P057,Mall Road Manali,Manali,Himachal Pradesh,market,"shopping,market,food,central",4.5,0,2,32.2396,77.1887,86,summer,true,true,"Popular local market in Manali with shopping, local shopping, and local food culture.",https://upload.wikimedia.org/wikipedia/commons/thumb/6/60/Akbar%27s_Tomb_in_Sikandra_15.jpg/3840px-Akbar%27s_Tomb_in_Sikandra_15.jpg
P058,Vashisht Hot Springs,Manali,Himachal Pradesh,nature,"hot-springs,relaxation,temple,wellness",4.4,50,1.5,32.2524,77.1873,78,summer,true,true,"Popular nature retreat in Manali with hot springs, relaxation, and spiritual atmosphere.",https://upload.wikimedia.org/wikipedia/commons/thumb/3/36/Mariam%27s_Tomb%2C_Sikandra%2C_Agra.JPG/1920px-Mariam%27s_Tomb%2C_Sikandra%2C_Agra.JPG
P059,Himalayan Nyinmapa Monastery,Manali,Himachal Pradesh,heritage,"monastery,culture,spiritual,quiet",4.4,0,1,32.2392,77.1895,72,summer,true,true,"Popular heritage landmark in Manali with monastic calm, cultural experiences, and spiritual atmosphere.",https://upload.wikimedia.org/wikipedia/commons/1/1d/Taj_Mahal_%28Edited%29.jpeg
P060,Nehru Kund,Manali,Himachal Pradesh,nature,"spring,scenic,quick-stop,roadside",4.3,0,1,32.2677,77.1810,70,summer,true,true,"Popular nature retreat in Manali with spring, scenic, and quick stop.",https://upload.wikimedia.org/wikipedia/commons/thumb/6/6c/Chini_ki_Rauza_4.jpg/3840px-Chini_ki_Rauza_4.jpg
P061,Gateway of India,Mumbai,Maharashtra,heritage,"monument,heritage,harbour,iconic",4.6,0,1.5,18.9220,72.8347,97,winter,true,true,"Popular heritage landmark in Mumbai with monumental design, heritage appeal, and harbour.",https://upload.wikimedia.org/wikipedia/commons/thumb/f/f1/Solang_Valley_%2CManali%2C_Himachal_Pardes%2C_India.JPG/3840px-Solang_Valley_%2CManali%2C_Himachal_Pardes%2C_India.JPG
P062,Marine Drive,Mumbai,Maharashtra,heritage,"waterfront,evening,walks,cityscape",4.7,0,2,18.9430,72.8238,96,winter,true,true,"Popular heritage landmark in Mumbai with waterfront, evening, and walks.",https://upload.wikimedia.org/wikipedia/commons/thumb/2/27/%E0%A6%93%E0%A6%B0%E0%A6%B2%E0%A6%BF%E0%A6%B0_%E0%A6%97%E0%A6%97%E0%A6%A8%E0%A6%B0%E0%A7%88%E0%A6%96%E0%A6%BF%E0%A6%95_%E0%A6%A6%E0%A7%83%E0%A6%B6%E0%A7%8D%E0%A6%AF.jpg/3840px-%E0%A6%93%E0%A6%B0%E0%A6%B2%E0%A6%BF%E0%A6%B0_%E0%A6%97%E0%A6%97%E0%A6%A8%E0%A6%B0%E0%A7%88%E0%A6%96%E0%A6%BF%E0%A6%95_%E0%A6%A6%E0%A7%83%E0%A6%B6%E0%A7%8D%E0%A6%AF.jpg
P063,Elephanta Caves,Mumbai,Maharashtra,heritage,"unesco,caves,boat-ride,history",4.5,40,4,18.9633,72.9315,89,winter,true,true,"Popular heritage landmark in Mumbai with UNESCO heritage value, cave exploration, and boat ride.",https://upload.wikimedia.org/wikipedia/commons/thumb/2/27/%E0%A6%93%E0%A6%B0%E0%A6%B2%E0%A6%BF%E0%A6%B0_%E0%A6%97%E0%A6%97%E0%A6%A8%E0%A6%B0%E0%A7%88%E0%A6%96%E0%A6%BF%E0%A6%95_%E0%A6%A6%E0%A7%83%E0%A6%B6%E0%A7%8D%E0%A6%AF.jpg/3840px-%E0%A6%93%E0%A6%B0%E0%A6%B2%E0%A6%BF%E0%A6%B0_%E0%A6%97%E0%A6%97%E0%A6%A8%E0%A6%B0%E0%A7%88%E0%A6%96%E0%A6%BF%E0%A6%95_%E0%A6%A6%E0%A7%83%E0%A6%B6%E0%A7%8D%E0%A6%AF.jpg
P064,Chhatrapati Shivaji Maharaj Terminus,Mumbai,Maharashtra,heritage,"architecture,unesco,railway,iconic",4.6,0,1,18.9402,72.8356,88,winter,true,true,"Popular heritage landmark in Mumbai with striking architecture, UNESCO heritage value, and railway.",https://upload.wikimedia.org/wikipedia/commons/thumb/e/eb/Buddha_and_Manu_Temples.jpg/1920px-Buddha_and_Manu_Temples.jpg
P065,Juhu Beach,Mumbai,Maharashtra,beach,"beach,food,sunset,family",4.4,0,2.5,19.0990,72.8266,90,winter,true,true,"Popular beach escape in Mumbai with beachfront scenery, local food culture, and sunset views.",https://upload.wikimedia.org/wikipedia/commons/thumb/2/27/%E0%A6%93%E0%A6%B0%E0%A6%B2%E0%A6%BF%E0%A6%B0_%E0%A6%97%E0%A6%97%E0%A6%A8%E0%A6%B0%E0%A7%88%E0%A6%96%E0%A6%BF%E0%A6%95_%E0%A6%A6%E0%A7%83%E0%A6%B6%E0%A7%8D%E0%A6%AF.jpg/3840px-%E0%A6%93%E0%A6%B0%E0%A6%B2%E0%A6%BF%E0%A6%B0_%E0%A6%97%E0%A6%97%E0%A6%A8%E0%A6%B0%E0%A7%88%E0%A6%96%E0%A6%BF%E0%A6%95_%E0%A6%A6%E0%A7%83%E0%A6%B6%E0%A7%8D%E0%A6%AF.jpg
P066,Siddhivinayak Temple,Mumbai,Maharashtra,temple,"temple,spiritual,landmark,devotional",4.7,0,1.5,19.0176,72.8300,91,winter,true,true,"Popular sacred temple in Mumbai with spiritual atmosphere, landmark, and devotional.",https://upload.wikimedia.org/wikipedia/commons/thumb/2/27/%E0%A6%93%E0%A6%B0%E0%A6%B2%E0%A6%BF%E0%A6%B0_%E0%A6%97%E0%A6%97%E0%A6%A8%E0%A6%B0%E0%A7%88%E0%A6%96%E0%A6%BF%E0%A6%95_%E0%A6%A6%E0%A7%83%E0%A6%B6%E0%A7%8D%E0%A6%AF.jpg/3840px-%E0%A6%93%E0%A6%B0%E0%A6%B2%E0%A6%BF%E0%A6%B0_%E0%A6%97%E0%A6%97%E0%A6%A8%E0%A6%B0%E0%A7%88%E0%A6%96%E0%A6%BF%E0%A6%95_%E0%A6%A6%E0%A7%83%E0%A6%B6%E0%A7%8D%E0%A6%AF.jpg
P067,Colaba Causeway,Mumbai,Maharashtra,market,"shopping,street-market,colaba,food",4.5,0,2,18.9217,72.8324,85,winter,true,true,"Popular local market in Mumbai with shopping, street market, and colaba.",https://upload.wikimedia.org/wikipedia/commons/thumb/2/27/%E0%A6%93%E0%A6%B0%E0%A6%B2%E0%A6%BF%E0%A6%B0_%E0%A6%97%E0%A6%97%E0%A6%A8%E0%A6%B0%E0%A7%88%E0%A6%96%E0%A6%BF%E0%A6%95_%E0%A6%A6%E0%A7%83%E0%A6%B6%E0%A7%8D%E0%A6%AF.jpg/3840px-%E0%A6%93%E0%A6%B0%E0%A6%B2%E0%A6%BF%E0%A6%B0_%E0%A6%97%E0%A6%97%E0%A6%A8%E0%A6%B0%E0%A7%88%E0%A6%96%E0%A6%BF%E0%A6%95_%E0%A6%A6%E0%A7%83%E0%A6%B6%E0%A7%8D%E0%A6%AF.jpg
P068,Sanjay Gandhi National Park,Mumbai,Maharashtra,nature,"park,nature,caves,family",4.5,85,3,19.2147,72.9106,82,winter,true,true,"Popular nature retreat in Mumbai with park, natural beauty, and cave exploration.",https://upload.wikimedia.org/wikipedia/commons/thumb/b/be/Naggar_Castle_-_2.jpg/3840px-Naggar_Castle_-_2.jpg
P069,Haji Ali Dargah,Mumbai,Maharashtra,heritage,"dargah,spiritual,sea-link,iconic",4.5,0,1.5,18.9827,72.8089,84,winter,true,true,"Popular heritage landmark in Mumbai with dargah, spiritual atmosphere, and sea link.",https://upload.wikimedia.org/wikipedia/commons/a/a2/Kullu_Valley_from_Rohtang_Pass%2C_India.jpg
P070,Bandra Fort,Mumbai,Maharashtra,fort,"fort,seafront,viewpoint,photography",4.4,0,1.5,19.0417,72.8170,76,winter,true,true,"Popular historic fort in Mumbai with fort architecture, seafront, and panoramic views.",https://upload.wikimedia.org/wikipedia/commons/thumb/2/27/%E0%A6%93%E0%A6%B0%E0%A6%B2%E0%A6%BF%E0%A6%B0_%E0%A6%97%E0%A6%97%E0%A6%A8%E0%A6%B0%E0%A7%88%E0%A6%96%E0%A6%BF%E0%A6%95_%E0%A6%A6%E0%A7%83%E0%A6%B6%E0%A7%8D%E0%A6%AF.jpg/3840px-%E0%A6%93%E0%A6%B0%E0%A6%B2%E0%A6%BF%E0%A6%B0_%E0%A6%97%E0%A6%97%E0%A6%A8%E0%A6%B0%E0%A7%88%E0%A6%96%E0%A6%BF%E0%A6%95_%E0%A6%A6%E0%A7%83%E0%A6%B6%E0%A7%8D%E0%A6%AF.jpg
P071,Kashi Vishwanath Temple,Varanasi,Uttar Pradesh,temple,"temple,spiritual,heritage,pilgrimage",4.8,0,1.5,25.3109,83.0107,98,winter,true,true,"Popular sacred temple in Varanasi with spiritual atmosphere, heritage appeal, and pilgrimage value.",https://upload.wikimedia.org/wikipedia/commons/7/74/Mumbai_03-2016_27_skyline_at_Marine_Drive.jpg
P072,Dashashwamedh Ghat,Varanasi,Uttar Pradesh,heritage,"ghat,aarti,spiritual,ganges",4.8,0,2,25.3064,83.0108,97,winter,true,true,"Popular heritage landmark in Varanasi with ghat atmosphere, aarti, and spiritual atmosphere.",https://upload.wikimedia.org/wikipedia/commons/3/3a/Mumbai_03-2016_30_Gateway_of_India.jpg
P073,Assi Ghat,Varanasi,Uttar Pradesh,heritage,"ghat,boat-ride,sunrise,culture",4.7,0,2,25.2870,83.0053,90,winter,true,true,"Popular heritage landmark in Varanasi with ghat atmosphere, boat ride, and sunrise views.",https://upload.wikimedia.org/wikipedia/commons/4/4d/Chhatrapati_shivaji_terminus%2C_esterno_01.jpg
P074,Sarnath,Varanasi,Uttar Pradesh,heritage,"buddhist,history,day-trip,peaceful",4.7,50,3,25.3811,83.0217,88,winter,true,true,"Popular heritage landmark in Varanasi with buddhist, rich history, and day trip.",https://upload.wikimedia.org/wikipedia/commons/thumb/d/d9/Elephanta_Caves_Trimurti.jpg/1920px-Elephanta_Caves_Trimurti.jpg
P075,Ramnagar Fort,Varanasi,Uttar Pradesh,fort,"fort,heritage,museum,ganges",4.2,50,2,25.2707,83.0230,72,winter,true,true,"Popular historic fort in Varanasi with fort architecture, heritage appeal, and local history.",https://upload.wikimedia.org/wikipedia/commons/b/bf/Juhu_beach_%28Arial%29.jpg
P076,Manikarnika Ghat,Varanasi,Uttar Pradesh,heritage,"ghat,spiritual,rituals,history",4.4,0,1,25.3117,83.0095,83,winter,false,true,"Popular heritage landmark in Varanasi with ghat atmosphere, spiritual atmosphere, and rituals.",https://upload.wikimedia.org/wikipedia/commons/thumb/b/b9/Shree_Siddhivinayak_Temple_Mumbai.jpg/1920px-Shree_Siddhivinayak_Temple_Mumbai.jpg
P077,Banaras Hindu University,Varanasi,Uttar Pradesh,heritage,"campus,temple,architecture,culture",4.6,0,1.5,25.2677,82.9913,75,winter,true,true,"Popular heritage landmark in Varanasi with campus, spiritual atmosphere, and striking architecture.",https://upload.wikimedia.org/wikipedia/commons/c/ca/Mumbai_03-2016_12_Haji_Ali_Dargah.jpg
P078,Tulsi Manas Temple,Varanasi,Uttar Pradesh,temple,"temple,spiritual,calm,heritage",4.5,0,1,25.2956,82.9965,74,winter,true,true,"Popular sacred temple in Varanasi with spiritual atmosphere, calm, and heritage appeal.",https://upload.wikimedia.org/wikipedia/commons/5/5d/Bandra%E2%80%93Worli_Sea_Link.jpg
P079,Chunar Sandstone Lane Market,Varanasi,Uttar Pradesh,market,"silk,shopping,local,market",4.3,0,1.5,25.3172,82.9890,70,winter,true,true,"Popular local market in Varanasi with silk, shopping, and local.",https://upload.wikimedia.org/wikipedia/commons/thumb/0/0e/Varanasi%2C_India%2C_Ghats%2C_Cremation_ceremony_in_progress.jpg/1920px-Varanasi%2C_India%2C_Ghats%2C_Cremation_ceremony_in_progress.jpg
P080,Raj Ghat Bridge Viewpoint,Varanasi,Uttar Pradesh,viewpoint,"river-view,sunrise,photography,quiet",4.4,0,1,25.3240,83.0150,68,winter,true,true,"Popular scenic viewpoint in Varanasi with river view, sunrise views, and photo spots.",https://upload.wikimedia.org/wikipedia/en/1/17/Sanjay_Gandhi_National_Park_logo.png
P081,Fort Kochi Beach,Kochi,Kerala,beach,"beach,sunset,coastal,fort-kochi",4.3,0,1.5,9.9667,76.2383,82,winter,true,true,"Popular beach escape in Kochi with beachfront scenery, sunset views, and coastal charm.",https://upload.wikimedia.org/wikipedia/commons/c/c2/Assi_Ghat_Varanasi_morning_Aarti.jpg
P082,Chinese Fishing Nets,Kochi,Kerala,heritage,"heritage,photography,coastal,iconic",4.4,0,1,9.9662,76.2403,86,winter,true,true,"Popular heritage landmark in Kochi with heritage appeal, photo spots, and coastal charm.",https://upload.wikimedia.org/wikipedia/commons/a/ad/Dasaswamedh_ghat-varanasi_india-andres_larin.jpg
P083,Mattancherry Palace,Kochi,Kerala,palace,"palace,museum,heritage,history",4.3,0,1.5,9.9583,76.2595,78,winter,true,true,"Popular royal palace in Kochi with royal architecture, local history, and heritage appeal.",https://upload.wikimedia.org/wikipedia/commons/f/ff/Kashi_Vishwanath.jpg
P084,Paradesi Synagogue,Kochi,Kerala,heritage,"synagogue,heritage,jew-town,culture",4.4,10,1,9.9575,76.2598,76,winter,true,true,"Popular heritage landmark in Kochi with synagogue, heritage appeal, and jew town.",https://upload.wikimedia.org/wikipedia/commons/thumb/d/d9/Ancient_Buddhist_monasteries_near_Dhamekh_Stupa_Monument_Site%2C_Sarnath.jpg/1280px-Ancient_Buddhist_monasteries_near_Dhamekh_Stupa_Monument_Site%2C_Sarnath.jpg
P085,Jew Town,Kochi,Kerala,market,"market,antiques,shopping,heritage",4.4,0,2,9.9570,76.2590,80,winter,true,true,"Popular local market in Kochi with local shopping, antiques, and shopping.",https://upload.wikimedia.org/wikipedia/commons/8/89/Entrance_area_of_Ramnagar_Fort.jpg
P086,Marine Drive Kochi,Kochi,Kerala,heritage,"waterfront,walks,sunset,cityscape",4.5,0,1.5,9.9816,76.2750,84,winter,true,true,"Popular heritage landmark in Kochi with waterfront, walks, and sunset views.",https://upload.wikimedia.org/wikipedia/commons/9/95/Manikarnika_Ghat%2C_Varanasi%2C_Uttar_Pradesh%2C_India_%282011%29_5.jpg
P087,St. Francis Church,Kochi,Kerala,heritage,"church,history,fort-kochi,colonial",4.3,0,1,9.9648,76.2422,74,winter,true,true,"Popular heritage landmark in Kochi with church, rich history, and fort kochi.",https://upload.wikimedia.org/wikipedia/commons/thumb/0/0d/Manas_Mandir.jpg/3840px-Manas_Mandir.jpg
P088,Kerala Folklore Museum,Kochi,Kerala,museum,"museum,culture,art,heritage",4.5,100,2,9.9316,76.2981,77,winter,true,true,"Popular cultural museum in Kochi with local history, cultural experiences, and ART.",https://upload.wikimedia.org/wikipedia/en/c/ca/Banaras_Hindu_University_Emblem_Seal_Transparent.png
P089,Cherai Beach,Kochi,Kerala,beach,"beach,relaxed,family,day-trip",4.4,0,3,10.1428,76.1781,79,winter,true,true,"Popular beach escape in Kochi with beachfront scenery, relaxed, and family outings.",https://upload.wikimedia.org/wikipedia/commons/thumb/b/b1/Durga_Temple_gate.JPG/960px-Durga_Temple_gate.JPG
P090,Hill Palace Museum,Kochi,Kerala,museum,"museum,palace,history,artifacts",4.4,30,2,9.9448,76.3556,73,winter,true,true,"Popular cultural museum in Kochi with local history, royal architecture, and rich history.",https://upload.wikimedia.org/wikipedia/commons/thumb/4/48/Bharat_Kala_Bhavan_Museum%2C_Banaras_Hindu_University%2C_Varanasi.jpg/1920px-Bharat_Kala_Bhavan_Museum%2C_Banaras_Hindu_University%2C_Varanasi.jpg
P091,Taj Mahal,Agra,Uttar Pradesh,heritage,"unesco,monument,iconic,marble",4.8,50,3,27.1751,78.0421,100,winter,true,true,"Popular heritage landmark in Agra with UNESCO heritage value, monumental design, and iconic city identity.",https://upload.wikimedia.org/wikipedia/commons/6/6e/Kochi%2C_Fishing_nets_at_sunset%2C_Kerala%2C_India.jpg
P092,Agra Fort,Agra,Uttar Pradesh,fort,"fort,unesco,history,heritage",4.7,50,2.5,27.1795,78.0211,94,winter,true,true,"Popular historic fort in Agra with fort architecture, UNESCO heritage value, and rich history.",https://upload.wikimedia.org/wikipedia/commons/thumb/1/12/Mattancherry_Palace_DSC_0899.JPG/3840px-Mattancherry_Palace_DSC_0899.JPG
P093,Mehtab Bagh,Agra,Uttar Pradesh,nature,"garden,taj-view,sunset,photography",4.5,25,1.5,27.1797,78.0416,84,winter,true,true,"Popular nature retreat in Agra with green spaces, taj view, and sunset views.",https://upload.wikimedia.org/wikipedia/commons/thumb/1/19/Chinese_Fishing_Net_Raising_Birds_Sunrise_Ashtamudi_Kollam_Mar22_A7C_01784.jpg/3840px-Chinese_Fishing_Net_Raising_Birds_Sunrise_Ashtamudi_Kollam_Mar22_A7C_01784.jpg
P094,Fatehpur Sikri,Agra,Uttar Pradesh,heritage,"unesco,day-trip,architecture,history",4.6,50,3,27.0945,77.6678,88,winter,true,true,"Popular heritage landmark in Agra with UNESCO heritage value, day trip, and striking architecture.",https://upload.wikimedia.org/wikipedia/commons/6/68/Taj_Mahal%2C_Agra%2C_India.jpg
P095,Itmad-ud-Daulah Tomb,Agra,Uttar Pradesh,heritage,"tomb,marble,heritage,photography",4.5,30,1.5,27.1926,78.0315,80,winter,true,true,"Popular heritage landmark in Agra with tomb, marble, and heritage appeal.",https://upload.wikimedia.org/wikipedia/commons/thumb/3/34/St_Francis_Church_Fort_Kochi_DSC_1048.JPG/3840px-St_Francis_Church_Fort_Kochi_DSC_1048.JPG
P096,Kinari Bazaar,Agra,Uttar Pradesh,market,"market,shopping,local,street",4.3,0,1.5,27.1837,78.0146,72,winter,true,true,"Popular local market in Agra with local shopping, shopping, and local.",https://upload.wikimedia.org/wikipedia/commons/2/24/Santa_Cruz_Basilica_-_200_MP_03.jpg
P097,Akbar's Tomb Sikandra,Agra,Uttar Pradesh,heritage,"tomb,gardens,history,architecture",4.4,30,2,27.2206,77.9508,76,winter,true,true,"Popular heritage landmark in Agra with tomb, gardens, and rich history.",https://upload.wikimedia.org/wikipedia/commons/6/68/Taj_Mahal%2C_Agra%2C_India.jpg
P098,Jama Masjid Agra,Agra,Uttar Pradesh,temple,"mosque,heritage,old-city,spiritual",4.4,0,1,27.1829,78.0150,69,winter,true,true,"Popular sacred temple in Agra with mosque, heritage appeal, and old-city charm.",https://upload.wikimedia.org/wikipedia/commons/thumb/3/32/Hill_Palace_Cochin_%2824176740822%29.jpg/3840px-Hill_Palace_Cochin_%2824176740822%29.jpg
P099,Taj Nature Walk,Agra,Uttar Pradesh,nature,"walks,greenery,taj-view,birding",4.3,50,1.5,27.1695,78.0480,67,winter,true,true,"Popular nature retreat in Agra with walks, greenery, and taj view.",https://upload.wikimedia.org/wikipedia/commons/thumb/1/1d/Musical-walkway.jpg/1280px-Musical-walkway.jpg
P100,Anguri Bagh,Agra,Uttar Pradesh,nature,"garden,fort,heritage,quiet",4.2,0,1,27.1790,78.0217,64,winter,true,true,"Popular nature retreat in Agra with green spaces, fort architecture, and heritage appeal.",https://upload.wikimedia.org/wikipedia/commons/6/68/Taj_Mahal%2C_Agra%2C_India.jpg
P101,Mehrangarh Fort,Jodhpur,Rajasthan,fort,"fort,heritage,viewpoint,history",4.8,200,3,26.2489,73.0343,95,winter,true,true,"Popular historic fort in Jodhpur with fort architecture, heritage appeal, and panoramic views.",https://upload.wikimedia.org/wikipedia/commons/9/99/Mehrangarh_Fort_sanhita.jpg
P102,Jaswant Thada,Jodhpur,Rajasthan,heritage,"marble,heritage,quiet,photography",4.6,50,1.5,26.2539,73.0293,84,winter,true,true,"Popular heritage landmark in Jodhpur with marble, heritage appeal, and quiet.",https://upload.wikimedia.org/wikipedia/commons/thumb/a/ad/Jaswant_Thada_Dawn.jpg/1280px-Jaswant_Thada_Dawn.jpg
P103,Umaid Bhawan Palace,Jodhpur,Rajasthan,palace,"palace,royal,heritage,museum",4.7,100,2.5,26.2309,73.0363,90,winter,true,true,"Popular royal palace in Jodhpur with royal architecture, royal, and heritage appeal.",https://upload.wikimedia.org/wikipedia/commons/9/9a/1996_-218-20A_Jodhpur_Hotel_Umaid_Bhawan_Palace_%282233393509%29.jpg
P104,Clock Tower Market,Jodhpur,Rajasthan,market,"market,shopping,spices,old-city",4.4,0,2,26.2449,73.0153,78,winter,true,true,"Popular local market in Jodhpur with local shopping, shopping, and spices.",https://upload.wikimedia.org/wikipedia/commons/9/99/Mehrangarh_Fort_sanhita.jpg
P105,Mandore Garden,Jodhpur,Rajasthan,nature,"garden,heritage,relaxed,family",4.3,0,1.5,26.2269,73.0183,72,winter,true,true,"Popular nature retreat in Jodhpur with green spaces, heritage appeal, and relaxed.",https://upload.wikimedia.org/wikipedia/commons/9/99/Mehrangarh_Fort_sanhita.jpg
P106,Brahma Temple,Pushkar,Rajasthan,temple,"temple,spiritual,heritage,pilgrimage",4.7,0,1.5,26.4998,74.5611,92,winter,true,true,"Popular sacred temple in Pushkar with spiritual atmosphere, heritage appeal, and pilgrimage value.",https://upload.wikimedia.org/wikipedia/commons/thumb/f/f7/Mehrangarh_RaoJodhaDNP_DSC0158.jpg/3840px-Mehrangarh_RaoJodhaDNP_DSC0158.jpg
P107,Pushkar Lake,Pushkar,Rajasthan,lake,"lake,ghat,spiritual,heritage",4.6,0,1.5,26.5048,74.5561,88,winter,true,true,"Popular lakeside attraction in Pushkar with lake views, ghat atmosphere, and spiritual atmosphere.",https://upload.wikimedia.org/wikipedia/commons/d/d0/Pushkar.jpg
P108,Savitri Temple,Pushkar,Rajasthan,viewpoint,"ropeway,viewpoint,sunset,hills",4.5,150,2,26.4818,74.5631,80,winter,true,true,"Popular scenic viewpoint in Pushkar with ropeway, panoramic views, and sunset views.",https://upload.wikimedia.org/wikipedia/commons/d/d0/Pushkar.jpg
P109,Pushkar Bazaar,Pushkar,Rajasthan,market,"market,shopping,street,local",4.4,0,2,26.4958,74.5421,76,winter,true,true,"Popular local market in Pushkar with local shopping, shopping, and street.",https://upload.wikimedia.org/wikipedia/commons/thumb/8/8a/Kaylana.JPG/3840px-Kaylana.JPG
P110,Rangji Temple,Pushkar,Rajasthan,temple,"temple,heritage,architecture,spiritual",4.4,0,1,26.4778,74.5451,70,winter,true,true,"Popular sacred temple in Pushkar with spiritual atmosphere, heritage appeal, and striking architecture.",https://upload.wikimedia.org/wikipedia/commons/d/d0/Pushkar.jpg
P111,Golden Temple,Amritsar,Punjab,temple,"temple,spiritual,iconic,pilgrimage",4.9,0,2.5,31.6440,74.8823,99,winter,true,true,"Popular sacred temple in Amritsar with spiritual atmosphere, iconic city identity, and pilgrimage value.",https://upload.wikimedia.org/wikipedia/commons/2/28/The_Boat_and_The_Lake.jpg
P112,Jallianwala Bagh,Amritsar,Punjab,heritage,"history,memorial,heritage,freedom",4.7,0,1.5,31.6490,74.8773,90,winter,true,true,"Popular heritage landmark in Amritsar with rich history, memorial, and heritage appeal.",https://upload.wikimedia.org/wikipedia/commons/thumb/e/ea/Golden_Temple_Amritsar_Gurudwara_%28cropped%29.jpg/1920px-Golden_Temple_Amritsar_Gurudwara_%28cropped%29.jpg
P113,Partition Museum,Amritsar,Punjab,museum,"museum,history,culture,learning",4.6,25,2,31.6260,74.8843,84,winter,true,true,"Popular cultural museum in Amritsar with local history, rich history, and cultural experiences.",https://upload.wikimedia.org/wikipedia/commons/thumb/e/ea/Golden_Temple_Amritsar_Gurudwara_%28cropped%29.jpg/1920px-Golden_Temple_Amritsar_Gurudwara_%28cropped%29.jpg
P114,Wagah Border Ceremony,Amritsar,Punjab,viewpoint,"ceremony,border,patriotic,evening",4.7,0,3,31.6400,74.8633,92,winter,true,true,"Popular scenic viewpoint in Amritsar with ceremony, border, and patriotic.",https://upload.wikimedia.org/wikipedia/commons/thumb/e/ea/Golden_Temple_Amritsar_Gurudwara_%28cropped%29.jpg/1920px-Golden_Temple_Amritsar_Gurudwara_%28cropped%29.jpg
P115,Durgiana Temple,Amritsar,Punjab,temple,"temple,spiritual,heritage,calm",4.4,0,1.5,31.6220,74.8663,74,winter,true,true,"Popular sacred temple in Amritsar with spiritual atmosphere, heritage appeal, and calm.",https://upload.wikimedia.org/wikipedia/commons/thumb/e/ea/Golden_Temple_Amritsar_Gurudwara_%28cropped%29.jpg/1920px-Golden_Temple_Amritsar_Gurudwara_%28cropped%29.jpg
P116,Mysore Palace,Mysuru,Karnataka,palace,"palace,royal,heritage,iconic",4.8,100,2.5,12.3058,76.6494,97,winter,true,true,"Popular royal palace in Mysuru with royal architecture, royal, and heritage appeal.",https://upload.wikimedia.org/wikipedia/commons/thumb/5/56/Mysuru_Montage.jpg/960px-Mysuru_Montage.jpg
P117,Chamundi Hills,Mysuru,Karnataka,viewpoint,"hills,temple,viewpoint,scenic",4.6,0,2,12.3108,76.6444,86,winter,true,true,"Popular scenic viewpoint in Mysuru with hill scenery, spiritual atmosphere, and panoramic views.",https://upload.wikimedia.org/wikipedia/commons/thumb/1/1e/Lake_Bhimtal.jpg/3840px-Lake_Bhimtal.jpg
P118,St. Philomena Cathedral,Mysuru,Karnataka,heritage,"church,heritage,architecture,quiet",4.5,0,1,12.2878,76.6514,76,winter,true,true,"Popular heritage landmark in Mysuru with church, heritage appeal, and striking architecture.",https://upload.wikimedia.org/wikipedia/commons/thumb/5/56/Mysuru_Montage.jpg/960px-Mysuru_Montage.jpg
P119,Devaraja Market,Mysuru,Karnataka,market,"market,flowers,shopping,local",4.4,0,1.5,12.3018,76.6304,73,winter,true,true,"Popular local market in Mysuru with local shopping, flowers, and shopping.",https://upload.wikimedia.org/wikipedia/commons/thumb/4/44/Naukuchiatal_Lake.jpg/3840px-Naukuchiatal_Lake.jpg
P120,Brindavan Gardens,Mysuru,Karnataka,nature,"garden,fountains,evening,family",4.4,50,2,12.2838,76.6334,78,winter,true,true,"Popular nature retreat in Mysuru with green spaces, fountains, and evening.",https://upload.wikimedia.org/wikipedia/commons/thumb/1/1d/Governor%E2%80%99s_House%2C_Nainital%2C_Uttarakhand%2C_India.jpg/1920px-Governor%E2%80%99s_House%2C_Nainital%2C_Uttarakhand%2C_India.jpg
P121,Mall Road Shimla,Shimla,Himachal Pradesh,market,"market,walks,shopping,central",4.6,0,2,31.1148,77.1834,88,summer,true,true,"Popular local market in Shimla with local shopping, walks, and shopping.",https://upload.wikimedia.org/wikipedia/commons/thumb/e/e1/Dal_Lake_Hazratbal_Srinagar.jpg/3840px-Dal_Lake_Hazratbal_Srinagar.jpg
P122,The Ridge,Shimla,Himachal Pradesh,viewpoint,"viewpoint,walks,heritage,photography",4.6,0,1.5,31.1198,77.1784,85,summer,true,true,"Popular scenic viewpoint in Shimla with panoramic views, walks, and heritage appeal.",https://upload.wikimedia.org/wikipedia/commons/d/d6/Shalimar_Bagh_1.jpg
P123,Jakhoo Temple,Shimla,Himachal Pradesh,temple,"temple,hills,monkeys,viewpoint",4.5,0,2,31.0968,77.1854,79,summer,true,true,"Popular sacred temple in Shimla with spiritual atmosphere, hill scenery, and monkeys.",https://upload.wikimedia.org/wikipedia/commons/9/94/Nishat_Bagh.JPG
P124,Christ Church Shimla,Shimla,Himachal Pradesh,heritage,"church,heritage,architecture,landmark",4.5,0,1,31.1108,77.1644,74,summer,true,true,"Popular heritage landmark in Shimla with church, heritage appeal, and striking architecture.",https://upload.wikimedia.org/wikipedia/commons/thumb/9/9b/The_Ancient_Shankaracharya_Temple_%28Srinagar%2C_Jammu_and_Kashmir%29_%28cropped%29.jpg/1920px-The_Ancient_Shankaracharya_Temple_%28Srinagar%2C_Jammu_and_Kashmir%29_%28cropped%29.jpg
P125,Kufri Viewpoint,Shimla,Himachal Pradesh,nature,"hills,scenic,day-trip,family",4.4,0,2.5,31.0928,77.1674,80,summer,true,true,"Popular nature retreat in Shimla with hill scenery, scenic, and day trip.",https://upload.wikimedia.org/wikipedia/commons/thumb/f/f0/HAZRATBAL_SHRINE_01.JPG/3840px-HAZRATBAL_SHRINE_01.JPG
P126,Tiger Hill,Darjeeling,West Bengal,viewpoint,"sunrise,viewpoint,himalaya,scenic",4.7,50,2.5,27.0510,88.2763,93,summer,true,true,"Popular scenic viewpoint in Darjeeling with sunrise views, panoramic views, and himalaya.",https://upload.wikimedia.org/wikipedia/commons/thumb/0/01/Chashme_Shahi.jpg/1280px-Chashme_Shahi.jpg
P127,Batasia Loop,Darjeeling,West Bengal,heritage,"railway,heritage,viewpoint,photography",4.6,20,1.5,27.0560,88.2713,84,summer,true,true,"Popular heritage landmark in Darjeeling with railway, heritage appeal, and panoramic views.",https://upload.wikimedia.org/wikipedia/commons/e/e0/A_view_of_Pari_Mahal_Jammu_and_Kashmir_India.jpg
P128,Peace Pagoda,Darjeeling,West Bengal,heritage,"peaceful,monument,heritage,quiet",4.5,0,1,27.0330,88.2783,75,summer,true,true,"Popular heritage landmark in Darjeeling with peaceful surroundings, monumental design, and heritage appeal.",https://upload.wikimedia.org/wikipedia/commons/thumb/e/ee/Shikara_-_Sukhna_Lake_-_Chandigarh_2016-08-07_%28edit%29.jpg/3840px-Shikara_-_Sukhna_Lake_-_Chandigarh_2016-08-07_%28edit%29.jpg
P129,Darjeeling Mall,Darjeeling,West Bengal,market,"market,walks,cafes,shopping",4.4,0,2,27.0470,88.2573,78,summer,true,true,"Popular local market in Darjeeling with local shopping, walks, and cafes.",https://upload.wikimedia.org/wikipedia/commons/thumb/f/fa/Tulip_Garden_india_%28cropped%29.jpg/3840px-Tulip_Garden_india_%28cropped%29.jpg
P130,Himalayan Mountaineering Institute,Darjeeling,West Bengal,museum,"museum,mountains,history,learning",4.6,60,2,27.0290,88.2603,80,summer,true,true,"Popular cultural museum in Darjeeling with local history, mountains, and rich history.",https://upload.wikimedia.org/wikipedia/commons/thumb/e/ec/Nagin_Lake_%28Srinagar%29.jpg/500px-Nagin_Lake_%28Srinagar%29.jpg
P131,Promenade Beach,Puducherry,Puducherry,beach,"beach,walks,coastal,sunrise",4.5,0,1.5,11.9516,79.8183,85,winter,true,true,"Popular beach escape in Puducherry with beachfront scenery, walks, and coastal charm.",https://upload.wikimedia.org/wikipedia/commons/9/94/The_Golden_Temple_of_Amrithsar_7.jpg
P132,Sri Aurobindo Ashram,Puducherry,Puducherry,heritage,"ashram,spiritual,calm,heritage",4.6,0,1,11.9566,79.8133,82,winter,true,true,"Popular heritage landmark in Puducherry with ashram, spiritual atmosphere, and calm.",https://upload.wikimedia.org/wikipedia/commons/thumb/b/b5/Jallianwala_Bagh%2C_Amritsar_01.jpg/3840px-Jallianwala_Bagh%2C_Amritsar_01.jpg
P133,French Quarter,Puducherry,Puducherry,heritage,"colonial,heritage,walks,photography",4.7,0,2,11.9336,79.8203,88,winter,true,true,"Popular heritage landmark in Puducherry with colonial, heritage appeal, and walks.",https://upload.wikimedia.org/wikipedia/commons/thumb/c/c4/The_SAARC_Car_Rally_2007_being_welcomed_by_traditional_Drummers_at_the_Wagah_Border_on_March_28%2C_2007.jpg/1920px-The_SAARC_Car_Rally_2007_being_welcomed_by_traditional_Drummers_at_the_Wagah_Border_on_March_28%2C_2007.jpg
P134,Paradise Beach,Puducherry,Puducherry,beach,"beach,boat-ride,relaxed,scenic",4.5,150,3,11.9476,79.7993,84,winter,true,true,"Popular beach escape in Puducherry with beachfront scenery, boat ride, and relaxed.",https://upload.wikimedia.org/wikipedia/en/thumb/b/b3/Partition_museum_logo.jpg/330px-Partition_museum_logo.jpg
P135,Goubert Market,Puducherry,Puducherry,market,"market,local,shopping,food",4.2,0,1.5,11.9296,79.8023,68,winter,true,true,"Popular local market in Puducherry with local shopping, local, and shopping.",https://upload.wikimedia.org/wikipedia/commons/d/d8/Many_of_the_locals_we_had_spoken_to_were_delighted_that_the_Govt_has_sanctioned_funds_for_renovation_of_this_temple_%2838049489065%29.jpg
P136,Virupaksha Temple,Hampi,Karnataka,temple,"temple,heritage,unesco,spiritual",4.8,0,2,15.3450,76.4700,94,winter,true,true,"Popular sacred temple in Hampi with spiritual atmosphere, heritage appeal, and UNESCO heritage value.",https://upload.wikimedia.org/wikipedia/commons/thumb/d/dd/Wide_angle_of_Galigopuram_of_Virupaksha_Temple%2C_Hampi_%2804%29_%28cropped%29.jpg/3840px-Wide_angle_of_Galigopuram_of_Virupaksha_Temple%2C_Hampi_%2804%29_%28cropped%29.jpg
P137,Vittala Temple,Hampi,Karnataka,heritage,"heritage,stone-chariot,unesco,history",4.8,40,3,15.3500,76.4650,96,winter,true,true,"Popular heritage landmark in Hampi with heritage appeal, stone chariot, and UNESCO heritage value.",https://upload.wikimedia.org/wikipedia/commons/3/37/Gobindgarh_fort%2C_Amritsar%2C_Punjab%2C_India.jpg
P138,Hemakuta Hill,Hampi,Karnataka,viewpoint,"sunrise,viewpoint,ruins,scenic",4.6,0,1.5,15.3270,76.4720,83,winter,true,true,"Popular scenic viewpoint in Hampi with sunrise views, panoramic views, and ruins.",https://upload.wikimedia.org/wikipedia/commons/thumb/d/dd/Wide_angle_of_Galigopuram_of_Virupaksha_Temple%2C_Hampi_%2804%29_%28cropped%29.jpg/3840px-Wide_angle_of_Galigopuram_of_Virupaksha_Temple%2C_Hampi_%2804%29_%28cropped%29.jpg
P139,Hampi Bazaar,Hampi,Karnataka,market,"market,ruins,shopping,local",4.3,0,1.5,15.3410,76.4510,70,winter,true,true,"Popular local market in Hampi with local shopping, ruins, and shopping.",https://upload.wikimedia.org/wikipedia/commons/1/15/AkalTakhtGoldenTempleComplex.jpg
P140,Lotus Mahal,Hampi,Karnataka,palace,"heritage,palace,architecture,ruins",4.5,40,1.5,15.3230,76.4540,79,winter,true,true,"Popular royal palace in Hampi with heritage appeal, royal architecture, and striking architecture.",https://upload.wikimedia.org/wikipedia/commons/thumb/d/dd/Wide_angle_of_Galigopuram_of_Virupaksha_Temple%2C_Hampi_%2804%29_%28cropped%29.jpg/3840px-Wide_angle_of_Galigopuram_of_Virupaksha_Temple%2C_Hampi_%2804%29_%28cropped%29.jpg
P141,Dal Lake,Srinagar,Jammu and Kashmir,lake,"lake,shikara,scenic,iconic",4.8,0,2.5,34.0937,74.8073,98,summer,true,true,"Popular lakeside attraction in Srinagar with lake views, shikara, and scenic.",https://upload.wikimedia.org/wikipedia/commons/thumb/a/a4/Mysore_Palace_Morning.jpg/3840px-Mysore_Palace_Morning.jpg
P142,Shalimar Bagh,Srinagar,Jammu and Kashmir,nature,"garden,mughal,heritage,walks",4.6,25,1.5,34.0987,74.8023,84,summer,true,true,"Popular nature retreat in Srinagar with green spaces, mughal, and heritage appeal.",https://upload.wikimedia.org/wikipedia/commons/thumb/5/59/J.C.Nagar_Welcome_Board_to_Chamundi_Hills.jpg/1920px-J.C.Nagar_Welcome_Board_to_Chamundi_Hills.jpg
P143,Nishat Bagh,Srinagar,Jammu and Kashmir,nature,"garden,lake-view,mughal,family",4.6,25,1.5,34.0757,74.8093,82,summer,true,true,"Popular nature retreat in Srinagar with green spaces, lake view, and mughal.",https://upload.wikimedia.org/wikipedia/commons/thumb/0/0f/Brindavan_Gardens.JPG/1920px-Brindavan_Gardens.JPG
P144,Shankaracharya Temple,Srinagar,Jammu and Kashmir,temple,"temple,viewpoint,hills,spiritual",4.6,0,2,34.0897,74.7883,80,summer,true,true,"Popular sacred temple in Srinagar with spiritual atmosphere, panoramic views, and hill scenery.",https://upload.wikimedia.org/wikipedia/commons/thumb/d/d4/India_-_St._Philomena%27s_Church_02.jpg/1920px-India_-_St._Philomena%27s_Church_02.jpg
P145,Pari Mahal,Srinagar,Jammu and Kashmir,viewpoint,"viewpoint,heritage,sunset,photography",4.5,0,1.5,34.0717,74.7913,76,summer,true,true,"Popular scenic viewpoint in Srinagar with panoramic views, heritage appeal, and sunset views.",https://upload.wikimedia.org/wikipedia/commons/6/63/Entrance_of_Mysore_Zoo.jpg
P146,Jaisalmer Fort,Jaisalmer,Rajasthan,fort,"fort,heritage,unesco,old-city",4.8,50,3,26.9257,70.9183,96,winter,true,true,"Popular historic fort in Jaisalmer with fort architecture, heritage appeal, and UNESCO heritage value.",https://upload.wikimedia.org/wikipedia/commons/thumb/c/c1/A_view_of_Jaganmohan_Palace.jpg/3840px-A_view_of_Jaganmohan_Palace.jpg
P147,Patwon Ki Haveli,Jaisalmer,Rajasthan,heritage,"haveli,architecture,history,photography",4.6,100,1.5,26.9307,70.9133,84,winter,true,true,"Popular heritage landmark in Jaisalmer with haveli, striking architecture, and rich history.",https://upload.wikimedia.org/wikipedia/commons/thumb/3/32/Karanji_lake_pic.jpg/960px-Karanji_lake_pic.jpg
P148,Gadisar Lake,Jaisalmer,Rajasthan,lake,"lake,boats,sunset,heritage",4.5,0,1.5,26.9077,70.9203,80,winter,true,true,"Popular lakeside attraction in Jaisalmer with lake views, boats, and sunset views.",https://upload.wikimedia.org/wikipedia/commons/thumb/4/46/Jaisalmer_Fort.jpg/1280px-Jaisalmer_Fort.jpg
P149,Sam Sand Dunes,Jaisalmer,Rajasthan,viewpoint,"desert,sunset,camel,scenic",4.7,0,3,26.9217,70.8993,92,winter,true,true,"Popular scenic viewpoint in Jaisalmer with desert, sunset views, and camel.",https://upload.wikimedia.org/wikipedia/commons/thumb/f/f9/Palais-Mysore.jpg/500px-Palais-Mysore.jpg
P150,Bada Bagh,Jaisalmer,Rajasthan,heritage,"cenotaphs,heritage,sunset,photography",4.4,100,1.5,26.9037,70.9023,73,winter,true,true,"Popular heritage landmark in Jaisalmer with cenotaphs, heritage appeal, and sunset views.",https://upload.wikimedia.org/wikipedia/commons/thumb/4/46/Jaisalmer_Fort.jpg/1280px-Jaisalmer_Fort.jpg
P151,Shanti Stupa,Leh,Ladakh,viewpoint,"stupa,viewpoint,sunset,peaceful",4.7,0,1.5,34.1626,77.5870,89,summer,true,true,"Popular scenic viewpoint in Leh with stupa, panoramic views, and sunset views.",https://upload.wikimedia.org/wikipedia/commons/4/4d/Leh_City_seen_from_Shanti_Stupa.JPG
P152,Leh Palace,Leh,Ladakh,palace,"palace,heritage,viewpoint,history",4.6,20,1.5,34.1676,77.5820,83,summer,true,true,"Popular royal palace in Leh with royal architecture, heritage appeal, and panoramic views.",https://upload.wikimedia.org/wikipedia/commons/thumb/3/36/Leh_Palace_2011.jpg/3840px-Leh_Palace_2011.jpg
P153,Magnetic Hill,Leh,Ladakh,viewpoint,"road-trip,viewpoint,scenic,quirky",4.3,0,1,34.1446,77.5890,70,summer,true,true,"Popular scenic viewpoint in Leh with road trip, panoramic views, and scenic.",https://upload.wikimedia.org/wikipedia/commons/4/4d/Leh_City_seen_from_Shanti_Stupa.JPG
P154,Thiksey Monastery,Leh,Ladakh,heritage,"monastery,heritage,spiritual,architecture",4.8,30,2,34.1586,77.5680,90,summer,true,true,"Popular heritage landmark in Leh with monastic calm, heritage appeal, and spiritual atmosphere.",https://upload.wikimedia.org/wikipedia/commons/thumb/5/5b/Magnetic_Hill%2C_New_Brunswick.JPG/1920px-Magnetic_Hill%2C_New_Brunswick.JPG
P155,Hall of Fame Museum,Leh,Ladakh,museum,"museum,army,history,learning",4.6,125,1.5,34.1406,77.5710,78,summer,true,true,"Popular cultural museum in Leh with local history, army, and rich history.",https://upload.wikimedia.org/wikipedia/commons/thumb/e/e5/Thikse_Monastery_.jpg/1280px-Thikse_Monastery_.jpg
P156,Marina Beach,Chennai,Tamil Nadu,beach,"beach,walks,sunrise,city",4.4,0,2,13.0927,80.2807,90,winter,true,true,"Popular beach escape in Chennai with beachfront scenery, walks, and sunrise views.",https://upload.wikimedia.org/wikipedia/commons/thumb/e/ea/Hemis_Monastery_02.jpg/3840px-Hemis_Monastery_02.jpg
P157,Kapaleeshwarar Temple,Chennai,Tamil Nadu,temple,"temple,heritage,spiritual,architecture",4.7,0,1.5,13.0977,80.2757,88,winter,true,true,"Popular sacred temple in Chennai with spiritual atmosphere, heritage appeal, and striking architecture.",https://upload.wikimedia.org/wikipedia/commons/thumb/b/be/Spituk_Monastery-2008.jpg/960px-Spituk_Monastery-2008.jpg
P158,Fort St. George,Chennai,Tamil Nadu,heritage,"fort,history,museum,colonial",4.4,25,2,13.0747,80.2827,76,winter,true,true,"Popular heritage landmark in Chennai with fort architecture, rich history, and local history.",https://upload.wikimedia.org/wikipedia/commons/thumb/3/32/Chennai_Central.jpg/500px-Chennai_Central.jpg
P159,Government Museum Chennai,Chennai,Tamil Nadu,museum,"museum,art,history,culture",4.5,15,2,13.0887,80.2617,74,winter,true,true,"Popular cultural museum in Chennai with local history, ART, and rich history.",https://upload.wikimedia.org/wikipedia/commons/thumb/3/32/Chennai_Central.jpg/500px-Chennai_Central.jpg
P160,T Nagar Market,Chennai,Tamil Nadu,market,"market,shopping,textiles,jewelry",4.3,0,2.5,13.0707,80.2647,80,winter,true,true,"Popular local market in Chennai with local shopping, shopping, and textiles.",https://upload.wikimedia.org/wikipedia/commons/thumb/3/32/Chennai_Central.jpg/500px-Chennai_Central.jpg
P161,Lalbagh Botanical Garden,Bengaluru,Karnataka,nature,"garden,nature,walks,flowers",4.7,30,2,12.9816,77.6046,89,winter,true,true,"Popular nature retreat in Bengaluru with green spaces, natural beauty, and walks.",https://upload.wikimedia.org/wikipedia/commons/thumb/2/25/The_Ridge_Shimla_5.jpg/1920px-The_Ridge_Shimla_5.jpg
P162,Bangalore Palace,Bengaluru,Karnataka,palace,"palace,heritage,architecture,royal",4.4,240,1.5,12.9866,77.5996,78,winter,true,true,"Popular royal palace in Bengaluru with royal architecture, heritage appeal, and striking architecture.",https://upload.wikimedia.org/wikipedia/commons/f/ff/Mall_Road_Shimla_1.jpg
P163,Cubbon Park,Bengaluru,Karnataka,nature,"park,walks,greenery,relaxed",4.6,0,1.5,12.9636,77.6066,82,winter,true,true,"Popular nature retreat in Bengaluru with park, walks, and greenery.",https://upload.wikimedia.org/wikipedia/commons/5/5e/Christ_Church_in_Shimla%2C_India.jpg
P164,ISKCON Temple Bengaluru,Bengaluru,Karnataka,temple,"temple,spiritual,city,landmark",4.7,0,1.5,12.9776,77.5856,85,winter,true,true,"Popular sacred temple in Bengaluru with spiritual atmosphere, city, and landmark.",https://upload.wikimedia.org/wikipedia/commons/thumb/1/1c/Jakhoo_temple.jpg/3840px-Jakhoo_temple.jpg
P165,Commercial Street,Bengaluru,Karnataka,market,"shopping,market,food,urban",4.4,0,2.5,12.9596,77.5886,79,winter,true,true,"Popular local market in Bengaluru with shopping, local shopping, and local food culture.",https://upload.wikimedia.org/wikipedia/commons/thumb/c/cd/View_from_Visvesvaraya_Industrial_and_Technological_Museum_%282025%29_02.jpg/3840px-View_from_Visvesvaraya_Industrial_and_Technological_Museum_%282025%29_02.jpg
P166,Alappuzha Beach,Alappuzha,Kerala,beach,"beach,sunset,coastal,family",4.4,0,2,9.5081,76.3488,81,winter,true,true,"Popular beach escape in Alappuzha with beachfront scenery, sunset views, and coastal charm.",https://upload.wikimedia.org/wikipedia/commons/a/ad/01_Indian_Institute_of_Advanced_Study_01.JPG
P167,Alleppey Backwaters,Alappuzha,Kerala,lake,"backwaters,boat-ride,scenic,relaxed",4.8,0,3,9.5131,76.3438,96,winter,true,true,"Popular lakeside attraction in Alappuzha with backwaters, boat ride, and scenic.",https://upload.wikimedia.org/wikipedia/commons/thumb/e/e4/Alappuzha_Boat_Beauty_W.jpg/1920px-Alappuzha_Boat_Beauty_W.jpg
P168,Alappuzha Lighthouse,Alappuzha,Kerala,heritage,"lighthouse,heritage,viewpoint,coastal",4.4,20,1,9.4901,76.3508,73,winter,true,true,"Popular heritage landmark in Alappuzha with lighthouse, heritage appeal, and panoramic views.",https://upload.wikimedia.org/wikipedia/commons/thumb/7/7c/Annadale_Shimla_beauty.jpg/960px-Annadale_Shimla_beauty.jpg
P169,Mullakkal Temple,Alappuzha,Kerala,temple,"temple,spiritual,local,culture",4.3,0,1,9.5041,76.3298,67,winter,true,true,"Popular sacred temple in Alappuzha with spiritual atmosphere, local, and cultural experiences.",https://upload.wikimedia.org/wikipedia/commons/thumb/8/80/Tara_Devi_temple_Shimla.jpg/3840px-Tara_Devi_temple_Shimla.jpg
P170,Boat Jetty Market,Alappuzha,Kerala,market,"market,local,waterfront,food",4.2,0,1.5,9.4861,76.3328,64,winter,true,true,"Popular local market in Alappuzha with local shopping, local, and waterfront.",https://upload.wikimedia.org/wikipedia/commons/thumb/e/e4/Alappuzha_Boat_Beauty_W.jpg/1920px-Alappuzha_Boat_Beauty_W.jpg
P171,Sabarmati Ashram,Ahmedabad,Gujarat,heritage,"ashram,history,heritage,freedom",4.7,0,2,23.0325,72.5814,90,winter,true,true,"Popular heritage landmark in Ahmedabad with ashram, rich history, and heritage appeal.",https://upload.wikimedia.org/wikipedia/commons/thumb/d/d8/Tiger_Hill_Darjeeling_West_Bengal_India_%283%29.JPG/1920px-Tiger_Hill_Darjeeling_West_Bengal_India_%283%29.JPG
P172,Adalaj Stepwell,Ahmedabad,Gujarat,heritage,"stepwell,architecture,heritage,photography",4.7,0,1.5,23.0375,72.5764,86,winter,true,true,"Popular heritage landmark in Ahmedabad with stepwell, striking architecture, and heritage appeal.",https://upload.wikimedia.org/wikipedia/commons/1/11/Batasia_Loop_War_Memorial_with_Kanchanjunga.jpg
P173,Kankaria Lake,Ahmedabad,Gujarat,lake,"lake,family,evening,walks",4.5,25,2,23.0145,72.5834,80,winter,true,true,"Popular lakeside attraction in Ahmedabad with lake views, family outings, and evening.",https://upload.wikimedia.org/wikipedia/commons/thumb/0/07/Ministry_of_Railways_India.svg/1280px-Ministry_of_Railways_India.svg.png
P174,Sidi Saiyyed Mosque,Ahmedabad,Gujarat,heritage,"mosque,architecture,heritage,landmark",4.5,0,1,23.0285,72.5624,72,winter,true,true,"Popular heritage landmark in Ahmedabad with mosque, striking architecture, and heritage appeal.",https://upload.wikimedia.org/wikipedia/en/9/9a/Padmaja_Naidu_Himalayan_Zoological_Park_logo.png
P175,Law Garden Market,Ahmedabad,Gujarat,market,"market,shopping,street,crafts",4.3,0,2,23.0105,72.5654,74,winter,true,true,"Popular local market in Ahmedabad with local shopping, shopping, and street.",https://upload.wikimedia.org/wikipedia/commons/thumb/8/8e/Sabarmati_riverside.jpg/3840px-Sabarmati_riverside.jpg
P176,Dwarkadhish Temple,Dwarka,Gujarat,temple,"temple,spiritual,pilgrimage,heritage",4.8,0,1.5,22.2542,68.9785,95,winter,true,true,"Popular sacred temple in Dwarka with spiritual atmosphere, pilgrimage value, and heritage appeal.",https://upload.wikimedia.org/wikipedia/commons/thumb/b/b8/Peace_Pagoda%2C_Darjeeling_-_Dec_2006-2.jpg/500px-Peace_Pagoda%2C_Darjeeling_-_Dec_2006-2.jpg
P177,Gomti Ghat,Dwarka,Gujarat,heritage,"ghat,spiritual,walks,heritage",4.5,0,1,22.2592,68.9735,76,winter,true,true,"Popular heritage landmark in Dwarka with ghat atmosphere, spiritual atmosphere, and walks.",https://upload.wikimedia.org/wikipedia/commons/a/aa/Happy_Valley_Tea_Estate%2C_Darjeeling.jpg
P178,Rukmini Temple,Dwarka,Gujarat,temple,"temple,heritage,spiritual,architecture",4.4,0,1,22.2362,68.9805,72,winter,true,true,"Popular sacred temple in Dwarka with spiritual atmosphere, heritage appeal, and striking architecture.",https://upload.wikimedia.org/wikipedia/commons/thumb/0/0c/Dwarakadheesh_Temple%2C_2014.jpg/960px-Dwarakadheesh_Temple%2C_2014.jpg
P179,Dwarka Beach,Dwarka,Gujarat,beach,"beach,coastal,sunset,relaxed",4.3,0,1.5,22.2502,68.9595,68,winter,true,true,"Popular beach escape in Dwarka with beachfront scenery, coastal charm, and sunset views.",https://upload.wikimedia.org/wikipedia/commons/thumb/c/c1/Darjeeling_Rock_Garden.jpg/330px-Darjeeling_Rock_Garden.jpg
P180,Sudama Setu,Dwarka,Gujarat,viewpoint,"bridge,viewpoint,river,walks",4.3,10,1,22.2322,68.9625,66,winter,true,true,"Popular scenic viewpoint in Dwarka with bridge, panoramic views, and riverfront atmosphere.",https://upload.wikimedia.org/wikipedia/commons/thumb/b/b2/Darjeeling_Kangchenjunga.jpg/1920px-Darjeeling_Kangchenjunga.jpg
P181,Somnath Temple,Somnath,Gujarat,temple,"temple,spiritual,iconic,pilgrimage",4.8,0,1.5,20.8980,70.4112,97,winter,true,true,"Popular sacred temple in Somnath with spiritual atmosphere, iconic city identity, and pilgrimage value.",https://upload.wikimedia.org/wikipedia/commons/7/71/Charminar_Hyderabad_1.jpg
P182,Triveni Sangam,Somnath,Gujarat,heritage,"confluence,spiritual,heritage,rituals",4.4,0,1,20.9030,70.4062,70,winter,true,true,"Popular heritage landmark in Somnath with confluence, spiritual atmosphere, and heritage appeal.",https://upload.wikimedia.org/wikipedia/commons/5/56/Golconda_Fort_005.jpg
P183,Bhalka Tirth,Somnath,Gujarat,temple,"temple,spiritual,heritage,quiet",4.4,0,1,20.8800,70.4132,68,winter,true,true,"Popular sacred temple in Somnath with spiritual atmosphere, heritage appeal, and quiet.",https://upload.wikimedia.org/wikipedia/commons/d/d1/Ramoji_Film_City.jpg
P184,Somnath Beach,Somnath,Gujarat,beach,"beach,coastal,sunset,relaxed",4.3,0,1.5,20.8940,70.3922,72,winter,true,true,"Popular beach escape in Somnath with beachfront scenery, coastal charm, and sunset views.",https://upload.wikimedia.org/wikipedia/commons/a/ac/Salar_Jung_Museum%2C_Hyderabad%2C_India.jpg
P185,Prabhas Patan Museum,Somnath,Gujarat,museum,"museum,history,temple-artifacts,culture",4.2,20,1.5,20.8760,70.3952,61,winter,true,true,"Popular cultural museum in Somnath with local history, rich history, and temple artifacts.",https://upload.wikimedia.org/wikipedia/commons/thumb/d/de/HussainSagar_Moon_Rise.jpg/3840px-HussainSagar_Moon_Rise.jpg
P186,Meenakshi Amman Temple,Madurai,Tamil Nadu,temple,"temple,heritage,iconic,spiritual",4.8,0,2.5,9.9352,78.1298,97,winter,true,true,"Popular sacred temple in Madurai with spiritual atmosphere, heritage appeal, and iconic city identity.",https://upload.wikimedia.org/wikipedia/commons/thumb/3/3c/Birla_Mandir%2C_Hyderabad.png/1280px-Birla_Mandir%2C_Hyderabad.png
P187,Thirumalai Nayakkar Palace,Madurai,Tamil Nadu,palace,"palace,heritage,architecture,history",4.6,50,1.5,9.9402,78.1248,82,winter,true,true,"Popular royal palace in Madurai with royal architecture, heritage appeal, and striking architecture.",https://upload.wikimedia.org/wikipedia/commons/c/ce/Chowmahalla_Palace_01.jpg
P188,Gandhi Memorial Museum,Madurai,Tamil Nadu,museum,"museum,history,learning,culture",4.4,0,1.5,9.9172,78.1318,70,winter,true,true,"Popular cultural museum in Madurai with local history, rich history, and learning.",https://upload.wikimedia.org/wikipedia/commons/thumb/f/f4/Meenakshi_Amman_West_Tower.jpg/3840px-Meenakshi_Amman_West_Tower.jpg
P189,Pudhu Mandapam Market,Madurai,Tamil Nadu,market,"market,textiles,shopping,heritage",4.3,0,1.5,9.9312,78.1108,68,winter,true,true,"Popular local market in Madurai with local shopping, textiles, and shopping.",https://upload.wikimedia.org/wikipedia/commons/thumb/0/08/Qutb_Shahi_Tomb_5.jpg/3840px-Qutb_Shahi_Tomb_5.jpg
P190,Vandiyur Mariamman Teppakulam,Madurai,Tamil Nadu,lake,"lake,temple,walks,photography",4.3,0,1.5,9.9132,78.1138,66,winter,true,true,"Popular lakeside attraction in Madurai with lake views, spiritual atmosphere, and walks.",https://upload.wikimedia.org/wikipedia/commons/thumb/8/86/Laad_Bazaar.jpg/960px-Laad_Bazaar.jpg
P191,Ooty Lake,Ooty,Tamil Nadu,lake,"lake,boating,family,scenic",4.5,20,2,11.4164,76.7032,88,summer,true,true,"Popular lakeside attraction in Ooty with lake views, boating experiences, and family outings.",https://upload.wikimedia.org/wikipedia/commons/thumb/5/5d/Lingaraj_Temple_%2C_Bhubaneswar.jpg/1920px-Lingaraj_Temple_%2C_Bhubaneswar.jpg
P192,Botanical Garden Ooty,Ooty,Tamil Nadu,nature,"garden,flowers,family,walks",4.5,50,1.5,11.4214,76.6982,80,summer,true,true,"Popular nature retreat in Ooty with green spaces, flowers, and family outings.",https://upload.wikimedia.org/wikipedia/commons/d/db/Ooty_lake.jpg
P193,Doddabetta Peak,Ooty,Tamil Nadu,viewpoint,"viewpoint,hills,scenic,photography",4.6,10,1.5,11.3984,76.7052,84,summer,true,true,"Popular scenic viewpoint in Ooty with panoramic views, hill scenery, and scenic.",https://upload.wikimedia.org/wikipedia/commons/9/9b/Rajarani_Temple_2.jpg
P194,Rose Garden,Ooty,Tamil Nadu,nature,"garden,flowers,photography,relaxed",4.4,40,1.5,11.4124,76.6842,74,summer,true,true,"Popular nature retreat in Ooty with green spaces, flowers, and photo spots.",https://upload.wikimedia.org/wikipedia/commons/7/72/Khandagari_and_Udaygiri_featured_image.jpg
P195,Charing Cross Market,Ooty,Tamil Nadu,market,"market,shopping,food,central",4.2,0,1.5,11.3944,76.6872,65,summer,true,true,"Popular local market in Ooty with local shopping, shopping, and local food culture.",https://upload.wikimedia.org/wikipedia/commons/0/02/Nandankanan%2C_Bhubaneswar%2C_Odisha.jpg
P196,Kodaikanal Lake,Kodaikanal,Tamil Nadu,lake,"lake,boating,cycling,scenic",4.6,0,2,10.2481,77.4992,90,summer,true,true,"Popular lakeside attraction in Kodaikanal with lake views, boating experiences, and cycling.",https://upload.wikimedia.org/wikipedia/commons/thumb/7/7d/Bhubaneswar_State_Museum.jpg/1920px-Bhubaneswar_State_Museum.jpg
P197,Coakers Walk,Kodaikanal,Tamil Nadu,viewpoint,"viewpoint,walks,mist,scenic",4.5,30,1.5,10.2531,77.4942,82,summer,true,true,"Popular scenic viewpoint in Kodaikanal with panoramic views, walks, and mist.",https://upload.wikimedia.org/wikipedia/commons/d/da/Boating_in_Kodaikanal_Lake_with_Mist.jpg
P198,Bryant Park,Kodaikanal,Tamil Nadu,nature,"garden,flowers,relaxed,family",4.4,50,1,10.2301,77.5012,72,summer,true,true,"Popular nature retreat in Kodaikanal with green spaces, flowers, and relaxed.",https://upload.wikimedia.org/wikipedia/commons/d/da/Boating_in_Kodaikanal_Lake_with_Mist.jpg
P199,Pillar Rocks,Kodaikanal,Tamil Nadu,viewpoint,"viewpoint,cliffs,photography,scenic",4.5,0,1.5,10.2441,77.4802,78,summer,true,true,"Popular scenic viewpoint in Kodaikanal with panoramic views, dramatic cliffs, and photo spots.",https://upload.wikimedia.org/wikipedia/commons/d/da/Boating_in_Kodaikanal_Lake_with_Mist.jpg
P200,Kurinji Andavar Temple,Kodaikanal,Tamil Nadu,temple,"temple,viewpoint,spiritual,quiet",4.3,0,1,10.2261,77.4832,64,summer,true,true,"Popular sacred temple in Kodaikanal with spiritual atmosphere, panoramic views, and quiet.",https://upload.wikimedia.org/wikipedia/commons/d/da/Boating_in_Kodaikanal_Lake_with_Mist.jpg
P201,Charminar,Hyderabad,Telangana,heritage,"monument,heritage,iconic,old-city",4.6,25,1.5,17.3950,78.4967,95,winter,true,true,"Popular heritage landmark in Hyderabad with monumental design, heritage appeal, and iconic city identity.",https://upload.wikimedia.org/wikipedia/commons/7/71/Charminar_Hyderabad_1.jpg
P202,Golconda Fort,Hyderabad,Telangana,fort,"fort,history,viewpoint,architecture",4.7,25,2.5,17.4000,78.4917,90,winter,true,true,"Popular historic fort in Hyderabad with fort architecture, rich history, and panoramic views.",https://upload.wikimedia.org/wikipedia/commons/5/56/Golconda_Fort_005.jpg
P203,Hussain Sagar,Hyderabad,Telangana,lake,"lake,boating,evening,cityscape",4.4,0,2,17.3770,78.4987,78,winter,true,true,"Popular lakeside attraction in Hyderabad with lake views, boating experiences, and evening.",https://upload.wikimedia.org/wikipedia/commons/d/d1/Ramoji_Film_City.jpg
P204,Salar Jung Museum,Hyderabad,Telangana,museum,"museum,art,history,culture",4.5,20,2,17.3910,78.4777,80,winter,true,true,"Popular cultural museum in Hyderabad with local history, ART, and rich history.",https://upload.wikimedia.org/wikipedia/commons/a/ac/Salar_Jung_Museum%2C_Hyderabad%2C_India.jpg
P205,Laad Bazaar,Hyderabad,Telangana,market,"market,shopping,bangles,old-city",4.4,0,2,17.3730,78.4807,79,winter,true,true,"Popular local market in Hyderabad with local shopping, shopping, and bangles.",https://upload.wikimedia.org/wikipedia/commons/thumb/d/de/HussainSagar_Moon_Rise.jpg/3840px-HussainSagar_Moon_Rise.jpg
P206,Ajanta Caves,Aurangabad,Maharashtra,heritage,"caves,unesco,history,art",4.8,40,4,19.8862,75.3533,96,winter,true,true,"Popular heritage landmark in Aurangabad with cave exploration, UNESCO heritage value, and rich history.",https://upload.wikimedia.org/wikipedia/commons/thumb/3/3c/Birla_Mandir%2C_Hyderabad.png/1280px-Birla_Mandir%2C_Hyderabad.png
P207,Ellora Caves,Aurangabad,Maharashtra,heritage,"caves,unesco,architecture,history",4.8,40,4,19.8912,75.3483,97,winter,true,true,"Popular heritage landmark in Aurangabad with cave exploration, UNESCO heritage value, and striking architecture.",https://upload.wikimedia.org/wikipedia/commons/c/ce/Chowmahalla_Palace_01.jpg
P208,Bibi Ka Maqbara,Aurangabad,Maharashtra,heritage,"monument,heritage,photography,history",4.5,25,1.5,19.8682,75.3553,82,winter,true,true,"Popular heritage landmark in Aurangabad with monumental design, heritage appeal, and photo spots.",https://upload.wikimedia.org/wikipedia/commons/thumb/6/65/Bibi_Ka_Maqbara_-_The_Taj_Of_Deccan.jpg/3840px-Bibi_Ka_Maqbara_-_The_Taj_Of_Deccan.jpg
P209,Daulatabad Fort,Aurangabad,Maharashtra,fort,"fort,history,climb,viewpoint",4.5,25,2.5,19.8822,75.3343,79,winter,true,true,"Popular historic fort in Aurangabad with fort architecture, rich history, and climb.",https://upload.wikimedia.org/wikipedia/commons/thumb/0/08/Qutb_Shahi_Tomb_5.jpg/3840px-Qutb_Shahi_Tomb_5.jpg
P210,Panchakki,Aurangabad,Maharashtra,heritage,"heritage,watermill,old-city,history",4.2,20,1,19.8642,75.3373,62,winter,true,true,"Popular heritage landmark in Aurangabad with heritage appeal, watermill, and old-city charm.",https://upload.wikimedia.org/wikipedia/commons/thumb/8/86/Laad_Bazaar.jpg/960px-Laad_Bazaar.jpg
P211,Trimbakeshwar Temple,Nashik,Maharashtra,temple,"temple,spiritual,pilgrimage,heritage",4.7,0,1.5,20.0075,73.7998,89,winter,true,true,"Popular sacred temple in Nashik with spiritual atmosphere, pilgrimage value, and heritage appeal.",https://upload.wikimedia.org/wikipedia/commons/thumb/5/5d/Lingaraj_Temple_%2C_Bhubaneswar.jpg/1920px-Lingaraj_Temple_%2C_Bhubaneswar.jpg
P212,Sula Vineyards,Nashik,Maharashtra,nature,"vineyard,scenic,leisure,food",4.5,600,2.5,20.0125,73.7948,81,winter,true,true,"Popular nature retreat in Nashik with vineyard, scenic, and leisure.",https://upload.wikimedia.org/wikipedia/commons/thumb/6/6a/NashikViewfromPandavLeni.jpg/960px-NashikViewfromPandavLeni.jpg
P213,Panchavati,Nashik,Maharashtra,heritage,"heritage,ghat,temple,spiritual",4.4,0,1.5,19.9895,73.8018,72,winter,true,true,"Popular heritage landmark in Nashik with heritage appeal, ghat atmosphere, and spiritual atmosphere.",https://upload.wikimedia.org/wikipedia/commons/9/9b/Rajarani_Temple_2.jpg
P214,Ramkund,Nashik,Maharashtra,heritage,"ghat,spiritual,heritage,rituals",4.4,0,1,20.0035,73.7808,70,winter,true,true,"Popular heritage landmark in Nashik with ghat atmosphere, spiritual atmosphere, and heritage appeal.",https://upload.wikimedia.org/wikipedia/commons/7/72/Khandagari_and_Udaygiri_featured_image.jpg
P215,Pandavleni Caves,Nashik,Maharashtra,heritage,"caves,history,trek,viewpoint",4.5,20,2,19.9855,73.7838,74,winter,true,true,"Popular heritage landmark in Nashik with cave exploration, rich history, and trek.",https://upload.wikimedia.org/wikipedia/commons/0/02/Nandankanan%2C_Bhubaneswar%2C_Odisha.jpg
P216,Upper Lake,Bhopal,Madhya Pradesh,lake,"lake,boating,sunset,cityscape",4.6,0,2,23.2699,77.4226,86,winter,true,true,"Popular lakeside attraction in Bhopal with lake views, boating experiences, and sunset views.",https://upload.wikimedia.org/wikipedia/commons/thumb/7/7d/Bhubaneswar_State_Museum.jpg/1920px-Bhubaneswar_State_Museum.jpg
P217,Van Vihar,Bhopal,Madhya Pradesh,nature,"nature,zoo,walks,family",4.4,30,2,23.2749,77.4176,75,winter,true,true,"Popular nature retreat in Bhopal with natural beauty, ZOO, and walks.",https://upload.wikimedia.org/wikipedia/commons/thumb/3/32/Deewali_New_market.jpg/3840px-Deewali_New_market.jpg
P218,Taj-ul-Masajid,Bhopal,Madhya Pradesh,heritage,"mosque,heritage,architecture,landmark",4.6,0,1.5,23.2519,77.4246,80,winter,true,true,"Popular heritage landmark in Bhopal with mosque, heritage appeal, and striking architecture.",https://upload.wikimedia.org/wikipedia/commons/thumb/3/32/Deewali_New_market.jpg/3840px-Deewali_New_market.jpg
P219,State Museum Bhopal,Bhopal,Madhya Pradesh,museum,"museum,history,culture,art",4.3,20,1.5,23.2659,77.4036,66,winter,true,true,"Popular cultural museum in Bhopal with local history, rich history, and cultural experiences.",https://upload.wikimedia.org/wikipedia/commons/thumb/3/32/Deewali_New_market.jpg/3840px-Deewali_New_market.jpg
P220,Bharat Bhavan,Bhopal,Madhya Pradesh,museum,"art,culture,museum,performing-arts",4.4,0,1.5,23.2479,77.4066,68,winter,true,true,"Popular cultural museum in Bhopal with ART, cultural experiences, and local history.",https://upload.wikimedia.org/wikipedia/commons/thumb/3/32/Deewali_New_market.jpg/3840px-Deewali_New_market.jpg
P221,Western Group of Temples,Khajuraho,Madhya Pradesh,heritage,"unesco,temples,architecture,iconic",4.8,40,3,24.8418,79.9299,96,winter,true,true,"Popular heritage landmark in Khajuraho with UNESCO heritage value, temple heritage, and striking architecture.",https://upload.wikimedia.org/wikipedia/commons/thumb/e/e7/1_Khajuraho.jpg/1920px-1_Khajuraho.jpg
P222,Eastern Group of Temples,Khajuraho,Madhya Pradesh,heritage,"temples,heritage,history,quiet",4.5,40,2,24.8468,79.9249,76,winter,true,true,"Popular heritage landmark in Khajuraho with temple heritage, heritage appeal, and rich history.",https://upload.wikimedia.org/wikipedia/commons/6/6a/Umiam_Lake_-_by_Vikramjit_Kakati.png
P223,Southern Group of Temples,Khajuraho,Madhya Pradesh,heritage,"temples,heritage,history,walks",4.3,40,1.5,24.8238,79.9319,66,winter,true,true,"Popular heritage landmark in Khajuraho with temple heritage, heritage appeal, and rich history.",https://upload.wikimedia.org/wikipedia/commons/3/36/Elephant_Falls_Meghalaya.jpg
P224,Raneh Falls,Khajuraho,Madhya Pradesh,nature,"waterfall,canyon,nature,day-trip",4.5,100,2.5,24.8378,79.9109,74,winter,true,true,"Popular nature retreat in Khajuraho with waterfall views, canyon, and natural beauty.",https://upload.wikimedia.org/wikipedia/commons/thumb/3/3d/Ward%27s_Lake%2C_Shillong.jpg/3840px-Ward%27s_Lake%2C_Shillong.jpg
P225,Khajuraho Archaeological Museum,Khajuraho,Madhya Pradesh,museum,"museum,history,artifacts,culture",4.2,20,1.5,24.8198,79.9139,60,winter,true,true,"Popular cultural museum in Khajuraho with local history, rich history, and artifacts.",https://upload.wikimedia.org/wikipedia/commons/thumb/e/e7/1_Khajuraho.jpg/1920px-1_Khajuraho.jpg
P226,Gwalior Fort,Gwalior,Madhya Pradesh,fort,"fort,heritage,viewpoint,history",4.8,75,3,26.2283,78.1928,95,winter,true,true,"Popular historic fort in Gwalior with fort architecture, heritage appeal, and panoramic views.",https://upload.wikimedia.org/wikipedia/commons/thumb/1/15/Gwalior_Fort_front.jpg/3840px-Gwalior_Fort_front.jpg
P227,Jai Vilas Palace,Gwalior,Madhya Pradesh,palace,"palace,museum,royal,heritage",4.6,300,2,26.2333,78.1878,82,winter,true,true,"Popular royal palace in Gwalior with royal architecture, local history, and royal.",https://upload.wikimedia.org/wikipedia/commons/thumb/1/15/Gwalior_Fort_front.jpg/3840px-Gwalior_Fort_front.jpg
P228,Sun Temple Gwalior,Gwalior,Madhya Pradesh,temple,"temple,architecture,quiet,landmark",4.4,0,1,26.2103,78.1948,68,winter,true,true,"Popular sacred temple in Gwalior with spiritual atmosphere, striking architecture, and quiet.",https://upload.wikimedia.org/wikipedia/commons/thumb/1/15/Gwalior_Fort_front.jpg/3840px-Gwalior_Fort_front.jpg
P229,Tansen Tomb,Gwalior,Madhya Pradesh,heritage,"heritage,music,history,calm",4.3,0,1,26.2243,78.1738,61,winter,true,true,"Popular heritage landmark in Gwalior with heritage appeal, music, and rich history.",https://upload.wikimedia.org/wikipedia/commons/thumb/1/15/Gwalior_Fort_front.jpg/3840px-Gwalior_Fort_front.jpg
P230,Sarafa Bazaar,Gwalior,Madhya Pradesh,market,"market,shopping,food,local",4.2,0,1.5,26.2063,78.1768,64,winter,true,true,"Popular local market in Gwalior with local shopping, shopping, and local food culture.",https://upload.wikimedia.org/wikipedia/commons/thumb/1/15/Gwalior_Fort_front.jpg/3840px-Gwalior_Fort_front.jpg
P231,Lingaraj Temple,Bhubaneswar,Odisha,temple,"temple,heritage,spiritual,iconic",4.7,0,1.5,20.3061,85.8345,92,winter,true,true,"Popular sacred temple in Bhubaneswar with spiritual atmosphere, heritage appeal, and iconic city identity.",https://upload.wikimedia.org/wikipedia/commons/2/2a/Tawang_Monastery_%28Tibetan_Buddhist%29.jpg
P232,Mukteshwar Temple,Bhubaneswar,Odisha,temple,"temple,architecture,heritage,quiet",4.6,0,1,20.3111,85.8295,78,winter,true,true,"Popular sacred temple in Bhubaneswar with spiritual atmosphere, striking architecture, and heritage appeal.",https://upload.wikimedia.org/wikipedia/commons/thumb/a/a1/Tawang_Gate.jpg/3840px-Tawang_Gate.jpg
P233,Udayagiri Khandagiri Caves,Bhubaneswar,Odisha,heritage,"caves,history,heritage,viewpoint",4.5,25,2,20.2881,85.8365,80,winter,true,true,"Popular heritage landmark in Bhubaneswar with cave exploration, rich history, and heritage appeal.",https://upload.wikimedia.org/wikipedia/commons/thumb/a/ac/Bhubaneswar_skyline_121224.jpg/500px-Bhubaneswar_skyline_121224.jpg
P234,Odisha State Museum,Bhubaneswar,Odisha,museum,"museum,history,culture,artifacts",4.3,20,1.5,20.3021,85.8155,66,winter,true,true,"Popular cultural museum in Bhubaneswar with local history, rich history, and cultural experiences.",https://upload.wikimedia.org/wikipedia/commons/thumb/8/83/Bong_bong_falls.jpg/500px-Bong_bong_falls.jpg
P235,Ekamra Haat,Bhubaneswar,Odisha,market,"market,crafts,shopping,culture",4.4,0,1.5,20.2841,85.8185,70,winter,true,true,"Popular local market in Bhubaneswar with local shopping, crafts, and shopping.",https://upload.wikimedia.org/wikipedia/commons/thumb/a/ac/Bhubaneswar_skyline_121224.jpg/500px-Bhubaneswar_skyline_121224.jpg
P236,Jagannath Temple,Puri,Odisha,temple,"temple,spiritual,pilgrimage,heritage",4.8,0,2,19.8235,85.8412,98,winter,true,true,"Popular sacred temple in Puri with spiritual atmosphere, pilgrimage value, and heritage appeal.",https://upload.wikimedia.org/wikipedia/commons/thumb/6/6e/Shri_Jagannatha_Temple.jpg/3840px-Shri_Jagannatha_Temple.jpg
P237,Puri Beach,Puri,Odisha,beach,"beach,sunrise,coastal,relaxed",4.5,0,2.5,19.8285,85.8362,84,winter,true,true,"Popular beach escape in Puri with beachfront scenery, sunrise views, and coastal charm.",https://upload.wikimedia.org/wikipedia/commons/thumb/6/6e/Shri_Jagannatha_Temple.jpg/3840px-Shri_Jagannatha_Temple.jpg
P238,Narendra Tank,Puri,Odisha,lake,"lake,temple,heritage,calm",4.3,0,1,19.8055,85.8432,64,winter,true,true,"Popular lakeside attraction in Puri with lake views, spiritual atmosphere, and heritage appeal.",https://upload.wikimedia.org/wikipedia/commons/thumb/6/6e/Shri_Jagannatha_Temple.jpg/3840px-Shri_Jagannatha_Temple.jpg
P239,Sudarshan Crafts Museum,Puri,Odisha,museum,"museum,crafts,culture,art",4.2,20,1.5,19.8195,85.8222,60,winter,true,true,"Popular cultural museum in Puri with local history, crafts, and cultural experiences.",https://upload.wikimedia.org/wikipedia/commons/b/b2/Bumla-Pass.jpg
P240,Swargadwar,Puri,Odisha,heritage,"ghat,beach,spiritual,rituals",4.3,0,1,19.8015,85.8252,67,winter,true,true,"Popular heritage landmark in Puri with ghat atmosphere, beachfront scenery, and spiritual atmosphere.",https://upload.wikimedia.org/wikipedia/commons/thumb/6/6e/Shri_Jagannatha_Temple.jpg/3840px-Shri_Jagannatha_Temple.jpg
P241,Konark Sun Temple,Konark,Odisha,heritage,"unesco,temple,architecture,iconic",4.8,40,2.5,19.8976,86.1045,96,winter,true,true,"Popular heritage landmark in Konark with UNESCO heritage value, spiritual atmosphere, and striking architecture.",https://upload.wikimedia.org/wikipedia/commons/f/fe/Front_View_of_Cellular_Jail%2C_Port_Blair.JPG
P242,Chandrabhaga Beach,Konark,Odisha,beach,"beach,sunrise,coastal,scenic",4.5,0,2,19.9026,86.0995,79,winter,true,true,"Popular beach escape in Konark with beachfront scenery, sunrise views, and coastal charm.",https://upload.wikimedia.org/wikipedia/commons/1/1f/Radha_Nagar_beach%2C_Havelock_Island%2C_Andamn%2C_India-_Sun_set_view.jpg
P243,ASI Museum Konark,Konark,Odisha,museum,"museum,history,artifacts,heritage",4.2,10,1.5,19.8796,86.1065,61,winter,true,true,"Popular cultural museum in Konark with local history, rich history, and artifacts.",https://upload.wikimedia.org/wikipedia/commons/thumb/9/9b/South_End_of_Ross_Island.jpg/1920px-South_End_of_Ross_Island.jpg
P244,Ramachandi Temple,Konark,Odisha,temple,"temple,coastal,spiritual,quiet",4.3,0,1,19.8936,86.0855,58,winter,true,true,"Popular sacred temple in Konark with spiritual atmosphere, coastal charm, and quiet.",https://upload.wikimedia.org/wikipedia/commons/thumb/a/ab/Maa_Ramachnadi_Temple.jpg/3840px-Maa_Ramachnadi_Temple.jpg
P245,Konark Bazaar,Konark,Odisha,market,"market,crafts,shopping,local",4.1,0,1,19.8756,86.0885,55,winter,true,true,"Popular local market in Konark with local shopping, crafts, and shopping.",https://upload.wikimedia.org/wikipedia/commons/c/cc/Pipili%2C_Odisha_01.jpg
P246,MG Marg,Gangtok,Sikkim,market,"market,walks,cafes,shopping",4.7,0,2,27.3489,88.6165,90,summer,true,true,"Popular local market in Gangtok with local shopping, walks, and cafes.",https://upload.wikimedia.org/wikipedia/commons/thumb/9/97/M.G._Marg%2C_Gangtok_01.jpg/3840px-M.G._Marg%2C_Gangtok_01.jpg
P247,Rumtek Monastery,Gangtok,Sikkim,heritage,"monastery,heritage,spiritual,architecture",4.7,10,2,27.3539,88.6115,86,summer,true,true,"Popular heritage landmark in Gangtok with monastic calm, heritage appeal, and spiritual atmosphere.",https://upload.wikimedia.org/wikipedia/commons/thumb/9/97/M.G._Marg%2C_Gangtok_01.jpg/3840px-M.G._Marg%2C_Gangtok_01.jpg
P248,Tashi View Point,Gangtok,Sikkim,viewpoint,"viewpoint,himalaya,sunrise,scenic",4.5,0,1.5,27.3309,88.6185,78,summer,true,true,"Popular scenic viewpoint in Gangtok with panoramic views, himalaya, and sunrise views.",https://upload.wikimedia.org/wikipedia/commons/thumb/9/97/M.G._Marg%2C_Gangtok_01.jpg/3840px-M.G._Marg%2C_Gangtok_01.jpg
P249,Enchey Monastery,Gangtok,Sikkim,heritage,"monastery,spiritual,quiet,heritage",4.4,0,1,27.3449,88.5975,68,summer,true,true,"Popular heritage landmark in Gangtok with monastic calm, spiritual atmosphere, and quiet.",https://upload.wikimedia.org/wikipedia/commons/thumb/9/97/M.G._Marg%2C_Gangtok_01.jpg/3840px-M.G._Marg%2C_Gangtok_01.jpg
P250,Tsomgo Lake,Gangtok,Sikkim,lake,"lake,scenic,day-trip,mountains",4.8,0,3,27.3269,88.6005,92,summer,true,true,"Popular lakeside attraction in Gangtok with lake views, scenic, and day trip.",https://upload.wikimedia.org/wikipedia/commons/thumb/7/79/Centaur_Oakblue_andamans_at_Mt_Harriet_National_Park.jpg/960px-Centaur_Oakblue_andamans_at_Mt_Harriet_National_Park.jpg
P251,Shillong Peak,Shillong,Meghalaya,viewpoint,"viewpoint,hills,city-view,scenic",4.6,30,1.5,25.5888,91.9033,86,summer,true,true,"Popular scenic viewpoint in Shillong with panoramic views, hill scenery, and city views.",https://upload.wikimedia.org/wikipedia/commons/thumb/c/c9/Panaji%2C_nostra_signora_dell%27immacolata_concezione%2C_esterno_04.jpg/3840px-Panaji%2C_nostra_signora_dell%27immacolata_concezione%2C_esterno_04.jpg
P252,Umiam Lake,Shillong,Meghalaya,lake,"lake,boating,scenic,relaxed",4.7,0,2,25.5938,91.8983,90,summer,true,true,"Popular lakeside attraction in Shillong with lake views, boating experiences, and scenic.",https://upload.wikimedia.org/wikipedia/commons/thumb/a/ac/Elephant_Falls_II%2C_Shillong.jpg/3840px-Elephant_Falls_II%2C_Shillong.jpg
P253,Elephant Falls,Shillong,Meghalaya,nature,"waterfall,nature,photography,family",4.5,20,1.5,25.5708,91.9053,82,summer,true,true,"Popular nature retreat in Shillong with waterfall views, natural beauty, and photo spots.",https://upload.wikimedia.org/wikipedia/commons/thumb/d/db/Fishing_Boats_anchored_at_Dona_Paula_%2C_Goa.jpg/1920px-Fishing_Boats_anchored_at_Dona_Paula_%2C_Goa.jpg
P254,Police Bazaar,Shillong,Meghalaya,market,"market,shopping,food,central",4.3,0,2,25.5848,91.8843,74,summer,true,true,"Popular local market in Shillong with local shopping, shopping, and local food culture.",https://upload.wikimedia.org/wikipedia/commons/b/b1/Fontainhas.jpg
P255,Ward's Lake,Shillong,Meghalaya,nature,"lake,garden,walks,relaxed",4.4,10,1.5,25.5668,91.8873,71,summer,true,true,"Popular nature retreat in Shillong with lake views, green spaces, and walks.",https://upload.wikimedia.org/wikipedia/commons/4/40/Reis_Magos_Fort_-_View_from_Mandovi_River.JPG
P256,Tawang Monastery,Tawang,Arunachal Pradesh,heritage,"monastery,spiritual,iconic,heritage",4.8,0,2.5,27.5966,91.8733,94,summer,true,true,"Popular heritage landmark in Tawang with monastic calm, spiritual atmosphere, and iconic city identity.",https://upload.wikimedia.org/wikipedia/commons/2/24/Maquinez_Palace%2C_Campal%2C_Panjim%2C_Goa%2C_India.JPG
P257,Sela Pass Viewpoint,Tawang,Arunachal Pradesh,viewpoint,"pass,mountains,scenic,road-trip",4.7,0,2,27.6016,91.8683,88,summer,true,true,"Popular scenic viewpoint in Tawang with pass, mountains, and scenic.",https://upload.wikimedia.org/wikipedia/commons/thumb/6/64/Entrance_to_Goa_State_Museum.jpg/1920px-Entrance_to_Goa_State_Museum.jpg
P258,Madhuri Lake,Tawang,Arunachal Pradesh,lake,"lake,scenic,high-altitude,photography",4.7,0,2,27.5786,91.8753,85,summer,true,true,"Popular lakeside attraction in Tawang with lake views, scenic, and high altitude.",https://upload.wikimedia.org/wikipedia/commons/thumb/9/9a/TawangMonastery-ArunachalPradesh-1.jpg/3840px-TawangMonastery-ArunachalPradesh-1.jpg
P259,Tawang War Memorial,Tawang,Arunachal Pradesh,heritage,"memorial,history,patriotic,quiet",4.5,0,1.5,27.5926,91.8543,76,summer,true,true,"Popular heritage landmark in Tawang with memorial, rich history, and patriotic.",https://upload.wikimedia.org/wikipedia/commons/thumb/9/95/Salim_Ali_Sanctuary.jpg/1280px-Salim_Ali_Sanctuary.jpg
P260,Urgelling Monastery,Tawang,Arunachal Pradesh,heritage,"monastery,spiritual,quiet,heritage",4.3,0,1,27.5746,91.8573,66,summer,true,true,"Popular heritage landmark in Tawang with monastic calm, spiritual atmosphere, and quiet.",https://upload.wikimedia.org/wikipedia/commons/thumb/9/9a/TawangMonastery-ArunachalPradesh-1.jpg/3840px-TawangMonastery-ArunachalPradesh-1.jpg
P261,Cellular Jail,Port Blair,Andaman and Nicobar Islands,heritage,"history,freedom,heritage,iconic",4.7,30,2.5,11.6734,92.7365,95,winter,true,true,"Popular heritage landmark in Port Blair with rich history, freedom, and heritage appeal.",https://upload.wikimedia.org/wikipedia/commons/4/4e/Tirumala_090615.jpg
P262,Corbyn's Cove Beach,Port Blair,Andaman and Nicobar Islands,beach,"beach,relaxed,coastal,family",4.4,0,2,11.6784,92.7315,80,winter,true,true,"Popular beach escape in Port Blair with beachfront scenery, relaxed, and coastal charm.",https://upload.wikimedia.org/wikipedia/commons/thumb/9/9b/View_from_South_Point%2C_%28Port_Blair%2C_India%29.jpg/1280px-View_from_South_Point%2C_%28Port_Blair%2C_India%29.jpg
P263,Ross Island Ruins,Port Blair,Andaman and Nicobar Islands,heritage,"island,ruins,history,boat-ride",4.6,0,3,11.6554,92.7385,84,winter,true,true,"Popular heritage landmark in Port Blair with island scenery, ruins, and rich history.",https://upload.wikimedia.org/wikipedia/commons/thumb/9/9b/View_from_South_Point%2C_%28Port_Blair%2C_India%29.jpg/1280px-View_from_South_Point%2C_%28Port_Blair%2C_India%29.jpg
P264,Samudrika Naval Marine Museum,Port Blair,Andaman and Nicobar Islands,museum,"museum,marine,learning,family",4.5,50,1.5,11.6694,92.7175,73,winter,true,true,"Popular cultural museum in Port Blair with local history, marine, and learning.",https://upload.wikimedia.org/wikipedia/commons/thumb/1/1e/Sri_Venkateswara_National_Park_Tirumala_Hills_01.jpg/1920px-Sri_Venkateswara_National_Park_Tirumala_Hills_01.jpg
P265,Chidiya Tapu Sunset Point,Port Blair,Andaman and Nicobar Islands,viewpoint,"sunset,viewpoint,birding,scenic",4.6,0,2,11.6114,92.7205,79,winter,true,true,"Popular scenic viewpoint in Port Blair with sunset views, panoramic views, and birding.",https://upload.wikimedia.org/wikipedia/commons/thumb/9/9b/View_from_South_Point%2C_%28Port_Blair%2C_India%29.jpg/1280px-View_from_South_Point%2C_%28Port_Blair%2C_India%29.jpg
P266,Fontainhas Latin Quarter,Panaji,Goa,heritage,"heritage,colonial,walks,photography",4.6,0,1.5,15.5009,73.8378,82,winter,true,true,"Popular heritage landmark in Panaji with heritage appeal, colonial, and walks.",https://upload.wikimedia.org/wikipedia/commons/thumb/d/d9/Panaji_City.JPG/1920px-Panaji_City.JPG
P267,Our Lady of the Immaculate Conception Church,Panaji,Goa,heritage,"church,heritage,landmark,city",4.6,0,1,15.5059,73.8328,78,winter,true,true,"Popular heritage landmark in Panaji with church, heritage appeal, and landmark.",https://upload.wikimedia.org/wikipedia/commons/thumb/d/d9/Panaji_City.JPG/1920px-Panaji_City.JPG
P268,Miramar Beach,Panaji,Goa,beach,"beach,sunset,city,coastal",4.4,0,2,15.4829,73.8398,74,winter,true,true,"Popular beach escape in Panaji with beachfront scenery, sunset views, and city.",https://upload.wikimedia.org/wikipedia/commons/thumb/d/d9/Panaji_City.JPG/1920px-Panaji_City.JPG
P269,Goa State Museum,Panaji,Goa,museum,"museum,history,culture,learning",4.2,0,1.5,15.4969,73.8188,62,winter,true,true,"Popular cultural museum in Panaji with local history, rich history, and cultural experiences.",https://upload.wikimedia.org/wikipedia/commons/thumb/d/d9/Panaji_City.JPG/1920px-Panaji_City.JPG
P270,Panjim Market,Panaji,Goa,market,"market,shopping,local,food",4.3,0,1.5,15.4789,73.8218,66,winter,true,true,"Popular local market in Panaji with local shopping, shopping, and local.",https://upload.wikimedia.org/wikipedia/commons/thumb/d/d9/Panaji_City.JPG/1920px-Panaji_City.JPG
P271,Sri Venkateswara Temple,Tirupati,Andhra Pradesh,temple,"temple,spiritual,pilgrimage,iconic",4.9,0,3,13.6388,79.4292,99,winter,true,true,"Popular sacred temple in Tirupati with spiritual atmosphere, pilgrimage value, and iconic city identity.",https://upload.wikimedia.org/wikipedia/commons/e/e0/Varkala_beach_from_above.jpg
P272,Akasa Ganga,Tirupati,Andhra Pradesh,nature,"waterfall,spiritual,scenic,hills",4.5,0,1.5,13.6438,79.4242,76,winter,true,true,"Popular nature retreat in Tirupati with waterfall views, spiritual atmosphere, and scenic.",https://upload.wikimedia.org/wikipedia/commons/thumb/8/8a/Janardhana_swamy_temple.jpg/1280px-Janardhana_swamy_temple.jpg
P273,Silathoranam,Tirupati,Andhra Pradesh,heritage,"rock-arch,heritage,nature,viewpoint",4.4,0,1,13.6208,79.4312,69,winter,true,true,"Popular heritage landmark in Tirupati with rock arch, heritage appeal, and natural beauty.",https://upload.wikimedia.org/wikipedia/commons/thumb/4/4e/Tirumala_090615.jpg/3840px-Tirumala_090615.jpg
P274,Kapila Theertham,Tirupati,Andhra Pradesh,temple,"temple,waterfall,spiritual,quiet",4.5,0,1.5,13.6348,79.4102,74,winter,true,true,"Popular sacred temple in Tirupati with spiritual atmosphere, waterfall views, and quiet.",https://upload.wikimedia.org/wikipedia/commons/thumb/4/4e/Tirumala_090615.jpg/3840px-Tirumala_090615.jpg
P275,Chandragiri Fort,Tirupati,Andhra Pradesh,fort,"fort,history,heritage,architecture",4.3,20,1.5,13.6168,79.4132,67,winter,true,true,"Popular historic fort in Tirupati with fort architecture, rich history, and heritage appeal.",https://upload.wikimedia.org/wikipedia/commons/thumb/c/ca/Varkala_sivagiri.jpg/1920px-Varkala_sivagiri.jpg
P276,Varkala Cliff,Varkala,Kerala,viewpoint,"cliff,coastal,sunset,cafes",4.8,0,2.5,8.7479,76.7263,94,winter,true,true,"Popular scenic viewpoint in Varkala with cliff, coastal charm, and sunset views.",https://upload.wikimedia.org/wikipedia/commons/e/ec/Anchutheng_fort.jpg
P277,Papanasam Beach,Varkala,Kerala,beach,"beach,relaxed,spiritual,coastal",4.6,0,2,8.7529,76.7213,87,winter,true,true,"Popular beach escape in Varkala with beachfront scenery, relaxed, and spiritual atmosphere.",https://upload.wikimedia.org/wikipedia/commons/thumb/4/49/Varkala_Beach%2C_Varkala%2C_Kerala.jpg/960px-Varkala_Beach%2C_Varkala%2C_Kerala.jpg
P278,Janardanaswamy Temple,Varkala,Kerala,temple,"temple,heritage,spiritual,local",4.4,0,1,8.7299,76.7283,70,winter,true,true,"Popular sacred temple in Varkala with spiritual atmosphere, heritage appeal, and local.",https://upload.wikimedia.org/wikipedia/commons/thumb/4/49/Varkala_Beach%2C_Varkala%2C_Kerala.jpg/960px-Varkala_Beach%2C_Varkala%2C_Kerala.jpg
P279,Kappil Beach,Varkala,Kerala,beach,"beach,backwaters,scenic,quiet",4.6,0,2.5,8.7439,76.7073,82,winter,true,true,"Popular beach escape in Varkala with beachfront scenery, backwaters, and scenic.",https://upload.wikimedia.org/wikipedia/commons/thumb/4/49/Varkala_Beach%2C_Varkala%2C_Kerala.jpg/960px-Varkala_Beach%2C_Varkala%2C_Kerala.jpg
P280,Varkala Aquarium,Varkala,Kerala,museum,"aquarium,family,marine,learning",4.1,120,1,8.7259,76.7103,58,winter,true,true,"Popular cultural museum in Varkala with aquarium, family outings, and marine.",https://upload.wikimedia.org/wikipedia/commons/thumb/4/49/Varkala_Beach%2C_Varkala%2C_Kerala.jpg/960px-Varkala_Beach%2C_Varkala%2C_Kerala.jpg
P281,Shore Temple,Mahabalipuram,Tamil Nadu,heritage,"temple,unesco,coastal,iconic",4.7,40,1.5,12.6369,80.2027,94,winter,true,true,"Popular heritage landmark in Mahabalipuram with spiritual atmosphere, UNESCO heritage value, and coastal charm.",https://upload.wikimedia.org/wikipedia/commons/thumb/7/74/Shore_Temple_-Mamallapuram_-Tamil_Nadu_-N-TN-C55.jpg/3840px-Shore_Temple_-Mamallapuram_-Tamil_Nadu_-N-TN-C55.jpg
P282,Five Rathas,Mahabalipuram,Tamil Nadu,heritage,"unesco,monolith,heritage,architecture",4.7,40,1.5,12.6419,80.1977,88,winter,true,true,"Popular heritage landmark in Mahabalipuram with UNESCO heritage value, monolith, and heritage appeal.",https://upload.wikimedia.org/wikipedia/commons/thumb/6/69/Descent_of_the_Ganges_01.jpg/3840px-Descent_of_the_Ganges_01.jpg
P283,Arjuna's Penance,Mahabalipuram,Tamil Nadu,heritage,"rock-carving,heritage,art,history",4.6,0,1,12.6189,80.2047,80,winter,true,true,"Popular heritage landmark in Mahabalipuram with rock carving, heritage appeal, and ART.",https://upload.wikimedia.org/wikipedia/commons/thumb/c/c2/Five_Rathas_at_Mahaballipuram%2CTamil_Nadu.jpg/1920px-Five_Rathas_at_Mahaballipuram%2CTamil_Nadu.jpg
P284,Mahabalipuram Beach,Mahabalipuram,Tamil Nadu,beach,"beach,coastal,walks,relaxed",4.3,0,2,12.6329,80.1837,72,winter,true,true,"Popular beach escape in Mahabalipuram with beachfront scenery, coastal charm, and walks.",https://upload.wikimedia.org/wikipedia/commons/8/83/Krishna_Butterball_Below_Mahabalipuram_Sep22_A7C_02490.jpg
P285,Krishna's Butter Ball,Mahabalipuram,Tamil Nadu,heritage,"rock-formation,photography,quirky,heritage",4.4,0,1,12.6149,80.1867,68,winter,true,true,"Popular heritage landmark in Mahabalipuram with rock formation, photo spots, and quirky.",https://upload.wikimedia.org/wikipedia/commons/d/d7/A_collage_of_Mamallapuram_town_Tamil_Nadu_India.jpg
P286,Nakki Lake,Mount Abu,Rajasthan,lake,"lake,boating,sunset,scenic",4.5,0,2,24.6026,72.7256,84,winter,true,true,"Popular lakeside attraction in Mount Abu with lake views, boating experiences, and sunset views.",https://upload.wikimedia.org/wikipedia/commons/thumb/6/69/Descent_of_the_Ganges_01.jpg/3840px-Descent_of_the_Ganges_01.jpg
P287,Dilwara Temples,Mount Abu,Rajasthan,temple,"temple,marble,heritage,architecture",4.8,0,2,24.6076,72.7206,92,winter,true,true,"Popular sacred temple in Mount Abu with spiritual atmosphere, marble, and heritage appeal.",https://upload.wikimedia.org/wikipedia/commons/0/01/Vsvarahacave.jpg
P288,Guru Shikhar,Mount Abu,Rajasthan,viewpoint,"peak,viewpoint,scenic,road-trip",4.6,0,2,24.5846,72.7276,80,winter,true,true,"Popular scenic viewpoint in Mount Abu with peak, panoramic views, and scenic.",https://upload.wikimedia.org/wikipedia/commons/6/6b/Mount_Abu.jpg
P289,Sunset Point Mount Abu,Mount Abu,Rajasthan,viewpoint,"sunset,viewpoint,hills,photography",4.5,0,1.5,24.5986,72.7066,76,winter,true,true,"Popular scenic viewpoint in Mount Abu with sunset views, panoramic views, and hill scenery.",https://upload.wikimedia.org/wikipedia/commons/6/6b/Mount_Abu.jpg
P290,Mount Abu Market,Mount Abu,Rajasthan,market,"market,shopping,food,local",4.2,0,1.5,24.5806,72.7096,62,winter,true,true,"Popular local market in Mount Abu with local shopping, shopping, and local food culture.",https://upload.wikimedia.org/wikipedia/commons/6/6b/Mount_Abu.jpg
P291,Ajmer Sharif Dargah,Ajmer,Rajasthan,heritage,"dargah,spiritual,pilgrimage,iconic",4.8,0,1.5,26.4599,74.6499,96,winter,true,true,"Popular heritage landmark in Ajmer with dargah, spiritual atmosphere, and pilgrimage value.",https://upload.wikimedia.org/wikipedia/commons/thumb/d/d3/Nakki_Lake_during_daytime.JPG/3840px-Nakki_Lake_during_daytime.JPG
P292,Ana Sagar Lake,Ajmer,Rajasthan,lake,"lake,walks,sunset,relaxed",4.4,0,1.5,26.4649,74.6449,74,winter,true,true,"Popular lakeside attraction in Ajmer with lake views, walks, and sunset views.",https://upload.wikimedia.org/wikipedia/commons/8/81/Delwada.jpg
P293,Adhai Din Ka Jhonpra,Ajmer,Rajasthan,heritage,"heritage,architecture,history,monument",4.5,0,1,26.4419,74.6519,72,winter,true,true,"Popular heritage landmark in Ajmer with heritage appeal, striking architecture, and rich history.",https://upload.wikimedia.org/wikipedia/commons/thumb/8/8a/Arbuda_Mountains.JPG/1920px-Arbuda_Mountains.JPG
P294,Akbari Fort and Museum,Ajmer,Rajasthan,fort,"fort,museum,history,heritage",4.3,20,1.5,26.4559,74.6309,64,winter,true,true,"Popular historic fort in Ajmer with fort architecture, local history, and rich history.",https://upload.wikimedia.org/wikipedia/commons/thumb/8/85/ADHAI_DIN_KA_JHONPRA.jpg/1280px-ADHAI_DIN_KA_JHONPRA.jpg
P295,Ajmer Market,Ajmer,Rajasthan,market,"market,shopping,food,local",4.2,0,1.5,26.4379,74.6339,60,winter,true,true,"Popular local market in Ajmer with local shopping, shopping, and local food culture.",https://upload.wikimedia.org/wikipedia/commons/thumb/8/85/ADHAI_DIN_KA_JHONPRA.jpg/1280px-ADHAI_DIN_KA_JHONPRA.jpg
P296,Raja Mahal,Orchha,Madhya Pradesh,palace,"palace,heritage,history,architecture",4.7,40,2,25.3610,78.6500,86,winter,true,true,"Popular royal palace in Orchha with royal architecture, heritage appeal, and rich history.",https://upload.wikimedia.org/wikipedia/commons/thumb/5/57/Achalgarh.jpg/500px-Achalgarh.jpg
